{"data": [{"name": "Motor Conjunto SRL", "tags": "45A\u00d1OS DE TRAYECTORIA CONJUNTOS INTEGRALES  -  INTERIOR DEL MOTOR  -  VENTA DE CONJUNTO DE BOMBAS  -  CONJINETE DE MOTOR.", "url": "http://www.motorconjuntos.com", "section": "repuestos-para-el-auto", "phone": "", "location": " San Juan - San Juan ", "address": " 9 De Julio Este 1100  "}, {"name": "La Pick-Up - Todo para Pick-Up", "tags": "REPUESTOS PARA PICK - UP  -  TOYOTA  -  ISUZU  -  F - 100", "url": "http://www.lapick-up.com", "section": "repuestos-para-el-auto", "phone": "(0381) 432 - 0136", "location": " San Miguel de Tucum\u00e1n - Tucuman ", "address": " S Del Estero 1499  "}, {"name": "Repuestos Don Felipe Electricidad", "tags": "EMPRESA CON AMPLIA TRAYECTORIA EN EL RUBRO BRINDANDOTE LO MEJOR EN TODO PARA  REPUESTOS DE ELECTRICIDAD  -  AUTOS  -  CAMIONES  -  ENV\u00cdOS A TODO EL PA\u00cdS", "url": "", "section": "repuestos-para-el-auto", "phone": "", "location": " Rosario - Santa Fe ", "address": " Av Pte Per\u00f3n 3220  "}, {"name": "Neurep SA", "tags": "PRIMEROS EN REPUESTOS PARA MOTORES DI\u00c9SEL O NAFTEROS", "url": "http://www.neurep-sa.com.ar", "section": "repuestos-para-el-auto", "phone": "(0299) 443 - 0828", "location": " Neuqu\u00e9n - Neuquen ", "address": " R\u00edo Negro 525  "}, {"name": "Warnes Norte Repuestos", "tags": "VENTAS POR MAYOR Y MENOR  -  ENCENDIDO  -  BATER\u00cdAS  -  REPUESTOS MULTIMARCA  -  ACCESORIOS  -  OPTICAS  -  FRENOS", "url": "http://www.warnesnorte.com", "section": "repuestos-para-el-auto", "phone": "", "location": " Manuel B Gonnet - Buenos Aires ", "address": " Cno Gral Belgrano 3915  "}, {"name": "Tekoh'A", "tags": "REPUESTOS PARA AUTOMOTORES  -  ENV\u00cdOS CONTRA REEMBOLSO A TODO EL PA\u00cdS", "url": "http://www.tekoha.com.ar", "section": "repuestos-para-el-auto", "phone": "(0379) 445 - 3834", "location": " Corrientes - Corrientes ", "address": " Av Centenario 4802  "}, {"name": "La Cueva de la Chapa", "tags": "AUTOPARTES NACIONALES E IMPORTADOS  -  FORD  -  VOLKSWAGEN  -  CHEVROLET  -  ISUZU  -  RENAULT  -  FIAT", "url": "http://www.lacuevadelachapa.com", "section": "repuestos-para-el-auto", "phone": "(03471) 46 - 3015", "location": " Armstrong - Santa Fe ", "address": " Alberdi 1960  "}, {"name": "Fischer Repuestos", "tags": "ACCESORIOS Y REPUESTOS PARA AUTOM\u00d3VILES  -  CAJAS DE VELOCIDAD  -  DIFERENCIALES", "url": "http://www.fischerrepuestos.com", "section": "repuestos-para-el-auto", "phone": "(0358) 462 - 2132", "location": " R\u00edo Cuarto - Cordoba ", "address": " Av A Sabattini 2073  "}, {"name": "Genovesio Martin", "tags": "ESPECIALISTA EN SERVICIO TECNICO INTEGRAL Y DIAGNOSTICO COMPUTARIZADO - VTA DE AUTOPARTES Y REPUESTOS - REPRESENTANTE OFICIAL TOJAKO", "url": "http://www.genovesiorepuestostoyota.com", "section": "repuestos-para-el-auto", "phone": "", "location": " Venado Tuerto - Santa Fe ", "address": " Av 12 De Octubre 330  "}, {"name": "Rodamientos Luro", "tags": "CON MAS DE 18 A\u00d1OS OFRECIENDO SERVICIOS DE RODAMIENTOS. TRANSMISIONES Y DEMAS  -  AUTOMOTOR  -  VIALES  -  CAMIONES ,  MAQUINARIAS AGR\u00cdCOLAS", "url": "http://www.rodamientosluro.com", "section": "repuestos-para-el-auto", "phone": "(0223) 477 - 0393", "location": " Mar del Plata - Buenos Aires ", "address": " Av P Luro 6440  "}, {"name": "Germany Motors SA", "tags": "SERVICIO ESPECIALIZADO MERCEDES BENZ", "url": "http://www.germany-motors.com.ar", "section": "repuestos-para-el-auto", "phone": "", "location": " Villa Lynch - Buenos Aires ", "address": " Guido Spano 3516  "}, {"name": "Ro-Ka Repuestos", "tags": "REPUESTOS FIAT  -  CHEVROLET  -  VOLKSWAGEN", "url": "http://www.ro-karepuestos.com", "section": "repuestos-para-el-auto", "phone": "(0351) 470 - 2894", "location": " C\u00f3rdoba - Cordoba ", "address": " J B Justo 3825  "}, {"name": "La Casa del Volkswagen", "tags": "VENTA DE REPUESTOS Y ACCESORIOS FORD  -  VOLKSWAGEN Y TOYOTA", "url": "", "section": "repuestos-para-el-auto", "phone": "(0299) 477 - 8794", "location": " Cipolletti - Rio Negro ", "address": " Brentana 227  "}, {"name": "Pagano a Ricardo y Cia SRL - Solo Venta Mayorista", "tags": "MAYORISTA DE AUTOPIEZAS", "url": "http://www.paganoycia.com.ar", "section": "repuestos-para-el-auto", "phone": "(02346) 43 - 0999", "location": " Chivilcoy - Buenos Aires ", "address": " Av B De Irigoyen 374  "}, {"name": "Mosconi Repuestos", "tags": "VENTA DE REPUESTOS DE PEUGEOT Y CITROEN  -  ENVIOS A TODO EL PAIS", "url": "http://www.mosconirepuestos.com.ar", "section": "repuestos-para-el-auto", "phone": "(011) 4699 - 0524", "location": " Lomas del Mirador - Buenos Aires ", "address": " Av Mosconi 140  "}, {"name": "Integral Repuestos", "tags": "REPUESTOS PARA AUTOS  -  RODAMIENTOS  -  RETENES", "url": "http://www.integralrep.com", "section": "repuestos-para-el-auto", "phone": "(03725) 42 - 0129", "location": " General Jos\u00e9 de San Mart\u00edn - Chaco ", "address": " Av Ing Ma\u00f1anes 767  "}, {"name": "Distribuidora de Autopartes", "tags": "DISTRIBIIDORA DE REPUESTOS Y AUTOPARTES DE FIAT Y PEUGEOT", "url": "", "section": "repuestos-para-el-auto", "phone": "(03564) 42 - 7616", "location": " San Francisco - Cordoba ", "address": " Av 9 De Julio 2437  "}, {"name": "Cassina - Repuestos Automotores", "tags": "REPUESTOS MULTIMARCA", "url": "", "section": "repuestos-para-el-auto", "phone": "(03468) 42 - 1518", "location": " Corral de Bustos - Cordoba ", "address": " Av Belgrano 169  "}, {"name": "Lego Pourtau SA", "tags": "CONCESIONARIO FIAT  -  AUTOMOTORES  -  REPUESTOS", "url": "", "section": "repuestos-para-el-auto", "phone": "(02223) 44 - 5402", "location": " Coronel Brandsen - Buenos Aires ", "address": " Ruta 215 Esq Rawson   "}, {"name": "El Gigante", "tags": "VENTA DE REPUESTOS DE ACOPLADOS Y EL\u00c1STICOS  -  VENTA Y COLOCACI\u00d3N DE PROTECTORES DE MOTORES Y DE NEUM\u00c1TICOS  -  JACUZZI", "url": "http://www.tallerelgigante.com", "section": "repuestos-para-el-auto", "phone": "(0376) 459 - 7000", "location": " Posadas - Misiones ", "address": " J M De Rosas 6802  "}, {"name": "Lago Hnos", "tags": "REPUESTOS Y ACCESORIOS  -  ELECTRICIDAD DEL AUTOMOTOR", "url": "http://www.lagohermanos.com", "section": "repuestos-para-el-auto", "phone": "(0351) 423 - 0567", "location": " C\u00f3rdoba - Cordoba ", "address": " Av Gral Paz 601  "}, {"name": "Helios Protools", "tags": "HERRAMIENTAS ESPECIALES  -  VISITE NUESTRA WEB", "url": "http://www.fabricahelios.com", "section": "repuestos-para-el-auto", "phone": "(011) 4247 - 2835", "location": " Lan\u00fas - Buenos Aires ", "address": " Gasc\u00f3n 1638  "}, {"name": "Martinez Repuestos", "tags": "REPUESTOS FIAT  -  PEUGEOT Y CITRO\u00cbN", "url": "", "section": "repuestos-para-el-auto", "phone": "(0351) 471 - 9605", "location": " C\u00f3rdoba - Cordoba ", "address": " Bv Las Heras 700  "}, {"name": "Boulevard Paris - Concesionario Oficial Peugeot", "tags": "VENTA  -  POSVENTA  -  REPUESTOS", "url": "http://www.boulevardparis.com.ar", "section": "repuestos-para-el-auto", "phone": "", "location": " San Juan - San Juan ", "address": " Av I De L Roza Oeste 1665  "}, {"name": "A Russoniello SA", "tags": "CONCESIONARIO OFICIAL FORD", "url": "http://www.arussoniello.com.ar", "section": "repuestos-para-el-auto", "phone": "(0236) 423 - 2000", "location": " Jun\u00edn - Buenos Aires ", "address": " Dellepiane e/R Hern\u00e1ndez y Uru   "}, {"name": "A Russoniello SA", "tags": "CONCESIONARIO OFICIAL FORD", "url": "http://www.arussoniello.com.ar", "section": "repuestos-para-el-auto", "phone": "(0236) 423 - 2000", "location": " Jun\u00edn - Buenos Aires ", "address": " Dellepiane e/R Hern\u00e1ndez y Uru   "}, {"name": "Aldo Repuestos SRL", "tags": "REPUESTOS Y ACCESORIOS PARA CAMIONES Y AUTOMOTORES", "url": "", "section": "repuestos-para-el-auto", "phone": "", "location": " Laboulaye - Cordoba ", "address": " Av Independencia 688  "}, {"name": "Casa Medina de Juan Carlos Medina", "tags": "DISTRIBUIDOR DE AUTOPARTES EL\u00c9CTRICAS  -  REPUESTOS DE ELECTRICIDAD  -  VENTAS POR MAYOR Y MENOR  -  ENV\u00cdOS AL INTERIOR", "url": "http://www.casa-medina.com.ar", "section": "repuestos-para-el-auto", "phone": "(0364) 442 - 1922", "location": " Presidencia Roque S\u00e1enz Pe\u00f1a - Chaco ", "address": " Urquiza 334  "}, {"name": "Antinori Autopartes", "tags": "PARTES DE CARROCER\u00cdA Y ACCESORIOS  -  4X4  -  EQUIPAMIENTO PARA EL AUTOMOTOR", "url": "http://www.antinoriautopartes.com.ar", "section": "repuestos-para-el-auto", "phone": "(0379) 445 - 1306", "location": " Corrientes - Corrientes ", "address": " Av Independencia 5233  "}, {"name": "Encendido Norte - Repuestos para Automotores", "tags": "REPUESTOS PARA AUTOS  -  ENCENDIDO  -  CARBURACI\u00d3N  -  ELECTRICIDAD", "url": "http://www.encendidonorte.com", "section": "repuestos-para-el-auto", "phone": "", "location": " La Plata - Buenos Aires ", "address": " 520 721  "}, {"name": "Brothers Equipamientos", "tags": "SEGURIDAD  -  CONFORT  -  ESTAMOS EN FACEBOOK: BROTHERS SOLO FIERROS", "url": "http://www.brotherssolofierros.com.ar", "section": "repuestos-para-el-auto", "phone": "", "location": " La Plata - Buenos Aires ", "address": " Avenida 44 2466  "}, {"name": "Centro del Encendido Saci", "tags": "DISTRIBUIDOR MAYORISTA DE BATER\u00cdAS  -  LUBRICANTES  -  REPUESTOS AUTOMOTORES Y FERRETER\u00cdAS", "url": "http://www.cdechaco.com.ar", "section": "repuestos-para-el-auto", "phone": "", "location": " Resistencia - Chaco ", "address": " Pueyrred\u00f3n 401  "}, {"name": "Repuestos Dani", "tags": "REPUESTOS Y ACCESORIOS PARA FIAT Y VOLKSWAGEN", "url": "http://www.repuestosdani.com", "section": "repuestos-para-el-auto", "phone": "", "location": " Rafaela - Santa Fe ", "address": " Bv Pte Roca 1540  "}, {"name": "Motor Conjunto SRL", "tags": "45A\u00d1OS DE TRAYECTORIA CONJUNTOS INTEGRALES  -  INTERIOR DEL MOTOR  -  VENTA DE CONJUNTO DE BOMBAS  -  CONJINETE DE MOTOR.", "url": "http://www.motorconjuntos.com", "section": "repuestos-para-el-auto", "phone": "", "location": " San Juan - San Juan ", "address": " 9 De Julio Este 1100  "}, {"name": "Armando Encendido", "tags": "BATER\u00cdAS PRESTOLITE  -  WILLARD  -  ACDELCO  -  MATEO", "url": "http://www.encendidoarmando.com", "section": "repuestos-para-el-auto", "phone": "", "location": " La Plata - Buenos Aires ", "address": " 72 452  "}, {"name": "Comercios Lauhirat SRL", "tags": "DISTRIBUIDOR NACIONAL AUTOPARTES BOSCH", "url": "http://www.lauhirat.com", "section": "repuestos-para-el-auto", "phone": "(02346) 42 - 2805", "location": " Chivilcoy - Buenos Aires ", "address": " Pellegrini 401  "}, {"name": "Chevrocar", "tags": "REPUESTOS Y ACCESORIOS CHEVROLET  -  L\u00cdNEA COMPLETA", "url": "http://www.repuestoschevrocar.com", "section": "repuestos-para-el-auto", "phone": "", "location": " Neuqu\u00e9n - Neuquen ", "address": " T L Planas 1501  "}, {"name": "Tekoh'A", "tags": "REPUESTOS PARA AUTOMOTORES  -  ENV\u00cdOS CONTRA REEMBOLSO A TODO EL PA\u00cdS", "url": "http://www.tekoha.com.ar", "section": "repuestos-para-el-auto", "phone": "(0379) 445 - 3834", "location": " Corrientes - Corrientes ", "address": " Av Centenario 4802  "}, {"name": "La Casa del Motor", "tags": "REPUESTOS DE AUTOMOTOR", "url": "http://www.lacasamotor.com.ar", "section": "repuestos-para-el-auto", "phone": "(011) 4735 - 4000", "location": " Villa Adelina - Buenos Aires ", "address": " Av B Ader 1508  "}, {"name": "Repuestos Diaz", "tags": "REPUESTOS Y ACCESORIOS PARA AUTOS  -  RULEMANES  -  BATER\u00cdAS  -  SUSPENSORES", "url": "", "section": "repuestos-para-el-auto", "phone": "", "location": " Mar del Plata - Buenos Aires ", "address": " llamar al   "}, {"name": "Repuestos y Servicios Maidana Ruben", "tags": "REPUESTOS PARA EL AUTOMOTOR", "url": "http://www.mecanicamaidana.com", "section": "repuestos-para-el-auto", "phone": "", "location": " Paran\u00e1 - Entre Rios ", "address": " Blas Parera 1749  "}, {"name": "Auto-Repuestos", "tags": "REPUESTOS CAJA Y DIFERENCIAL  -  TAPA CILINDRO  -  ARBOL DE LEVA  -  CARD\u00c1N  -  SUSPENSI\u00d3N  -  AMORTIGUADORES", "url": "http://www.autorepuestossh.com.ar", "section": "repuestos-para-el-auto", "phone": "(0342) 453 - 2421", "location": " Santa Fe - Santa Fe ", "address": " Av F Zuvir\u00eda 4222   "}, {"name": "Pedro Autopartes", "tags": "CAJAS  -  MOTORES  -  DIFERENCIALES  -  TAPAS DE CILINDROS  -  CARROCER\u00cdAS  -  SUSPENSI\u00d3N", "url": "", "section": "repuestos-para-el-auto", "phone": "(0342) 469 - 7664", "location": " Santa Fe - Santa Fe ", "address": " Av A Del Valle 9501  "}, {"name": "Todofiat II", "tags": "VENTA DE REPUESTOS Y ACCESORIOS ORIGINALES Fiat  -  Peugeot", "url": "http://www.todofiatsmt.com", "section": "repuestos-para-el-auto", "phone": "(0381) 432 - 0404", "location": " San Miguel de Tucum\u00e1n - Tucuman ", "address": " S Del Estero 1358  "}, {"name": "Repuestos Mitre", "tags": "ACCESORIOS Y AUTOPARTES , REPUESTOS DE LA MARCA VOLKSWAGEN Y FIAT ,  REPUESTOS PARA AUTOMOTOR DE ALTA CALIDAD , ATENCION PERSONALIZADA", "url": "http://www.respuestosmitre.com", "section": "repuestos-para-el-auto", "phone": "", "location": " Mendoza - Mendoza ", "address": " Av Mitre 2318  "}, {"name": "Casa Pallin", "tags": "REPUESTOS FIAT  -  BATER\u00cdAS MOURA  -  ENV\u00cdOS AL INTERIOR  -  MOTOR  -  FRENOS", "url": "", "section": "repuestos-para-el-auto", "phone": "(0362) 444 - 0728", "location": " Resistencia - Chaco ", "address": " A Illia 753  "}, {"name": "Hidraulica Godoy", "tags": "BANCO DE PRUEBAS  -  RECAMBIO  -  REPUESTOS", "url": "http://www.hidraulicagodoy.com", "section": "repuestos-para-el-auto", "phone": "", "location": " Rosario - Santa Fe ", "address": " Av Pte Per\u00f3n 6612  "}, {"name": "Frenos y Embragues Jujuy", "tags": "REPUESTOS AUTOMOTORES - TALLER ESPECIALIZADO EN DISCOS DE EMBRAGUE Y FRENOS  -  VENTA DE REPUESTOS", "url": "http://www.frenosjujuy.com", "section": "repuestos-para-el-auto", "phone": "(0388) 423 - 6232", "location": " San Salvador de Jujuy - Jujuy ", "address": " L D TORRE 793   "}, {"name": "Autopartes del Sur", "tags": "VISITE NUESTRA WEB", "url": "http://www.autopartesdelsur.com.ar", "section": "repuestos-para-el-auto", "phone": "(0291) 454 - 7010", "location": " Bah\u00eda Blanca - Buenos Aires ", "address": " Italia y Villarino   "}, {"name": "Batlle Repuestos", "tags": "TRANSMISI\u00d3N  -  DIFERENCIAL  -  CARD\u00c1N  -  VENTA DE REPUESTOS  -  REPUESTOS LIVIANOS Y PESADOS  -  CAMIONES  -  CAMIONETAS  -  PICK UP", "url": "", "section": "repuestos-para-el-auto", "phone": "", "location": " San Jos\u00e9 - Entre Rios ", "address": " Ruta 26 Km 5   "}, {"name": "Monasterio Tattersall SA", "tags": "INMOBILIARIA Y EXCEDENTES INDUSTRIALES  -  CAMPOS  -  SUBASTA DE ACTIVOS  -  CEREALES Y OLEAGINOSAS", "url": "http://www.monasterio-tattersall.com", "section": "repuestos-para-el-auto", "phone": "(02316) 45 - 4057", "location": " Daireaux - Buenos Aires ", "address": " Rivadavia 97  "}, {"name": "Autorep la Esquina", "tags": "REPUESTOS TOYOTA Y CHRYSLER", "url": "http://www.autorepsacba.com", "section": "repuestos-para-el-auto", "phone": "(0351) 426 - 5330", "location": " C\u00f3rdoba - Cordoba ", "address": " Tablada 249  "}, {"name": "Henka", "tags": "PLAN ROMBO  -  REPUESTOS  -  SERVICIO RENAULT", "url": "http://www.autojujuy.com.ar", "section": "repuestos-para-el-auto", "phone": "(0388) 428 - 2861", "location": " San Salvador de Jujuy - Jujuy ", "address": " Ruta 9 2429  "}, {"name": "Parana Rulemanes", "tags": "AUTOREPUESTOS  -  RULEMANES", "url": "http://www.autoparanarulemanes.com", "section": "repuestos-para-el-auto", "phone": "(0343) 431 - 4816", "location": " Paran\u00e1 - Entre Rios ", "address": " Av P Echag\u00fce 1168  "}, {"name": "El Mago - Repuestos para el Automotor", "tags": "REPUESTOS Y ACCESORIOS MULTIMARCA", "url": "", "section": "repuestos-para-el-auto", "phone": "(0379) 447 - 1351", "location": " Corrientes - Corrientes ", "address": " Av Independencia 4185  "}, {"name": "Milenaria SA", "tags": "CONCESIONARIA CHEVROLET", "url": "http://www.milenariasa.com.ar", "section": "repuestos-para-el-auto", "phone": "(02302) 43 - 6669", "location": " General Pico - La Pampa ", "address": " Ruta 1 795  "}, {"name": "Accesorios Don Belis SA", "tags": "ACCESORIOS PARA AUTOMOTOR", "url": "http://www.donbelis.com.ar", "section": "repuestos-para-el-auto", "phone": "(02317) 42 - 5052", "location": " 9 de Julio - Buenos Aires ", "address": " Av Mitre y A Alvarez   "}, {"name": "Cacho Repuestos SRL", "tags": "VENTA DE REPUESTOS Y ACCESORIOS", "url": "", "section": "repuestos-para-el-auto", "phone": "(0280) 442 - 2756", "location": " Trelew - Chubut ", "address": " Av Gales 595  "}, {"name": "F & a Repuestos", "tags": "REPUESTOS DE AUTOMOTORES RENAULT Y FIAT", "url": "", "section": "repuestos-para-el-auto", "phone": "(0351) 473 - 0618", "location": " C\u00f3rdoba - Cordoba ", "address": " Bv Las Heras 820  "}, {"name": "Repuestos Monza", "tags": "REPUESTOS  -  AUTOM\u00d3VILES  -  CAMIONES  -  ACCESORIOS  -  LUBRICANTES", "url": "http://www.respuestosmonza.com", "section": "repuestos-para-el-auto", "phone": "(03533) 42 - 3712", "location": " Las Varillas - Cordoba ", "address": " V\u00e9lez S\u00e1rsfield 333  "}, {"name": "Repuestos Musso Daniel", "tags": "REPUESTOS GENERALES TODAS LAS MARCAS", "url": "", "section": "repuestos-para-el-auto", "phone": "", "location": " Reconquista - Santa Fe ", "address": " P Diez 1343  "}, {"name": "Repuestos Chiappe para el Automotor", "tags": "REPUESTOS MULTIMARCA", "url": "", "section": "repuestos-para-el-auto", "phone": "(02284) 42 - 7800", "location": " Olavarr\u00eda - Buenos Aires ", "address": " Av Col\u00f3n y Espa\u00f1a   "}, {"name": "Repuestos del Automotor los Amigos", "tags": "TREN DELANTERO  -  MOTOR  -  FRENOS  -  ACCESORIOS  -  RULEMANES  -  REPUESTOS EN GENERAL", "url": "", "section": "repuestos-para-el-auto", "phone": "(0237) 468 - 2855", "location": " Moreno - Buenos Aires ", "address": " Av Libertador 3622  "}, {"name": "Repuestos Tres Puntas", "tags": "REPUESTOS  -  ACCESORIOS  -  VENTA DE REPUESTOS  -  CAMIONES Y UTILITARIOS", "url": "", "section": "repuestos-para-el-auto", "phone": "(0343) 436 - 4637", "location": " Paran\u00e1 - Entre Rios ", "address": " Provincias Unidas 1345  "}, {"name": "Oscar Luis Ghiggeri SRL", "tags": "REPUESTOS  -  EMBRAGUES  -  FRENOS  -  CORONAS DE ARRANQUE  -  BOMBAS DE AGUA", "url": "", "section": "repuestos-para-el-auto", "phone": "(0379) 446 - 6367", "location": " Corrientes - Corrientes ", "address": " Av P Ferr\u00e9 2207  "}, {"name": "Rodamientos Pehuen", "tags": "REPUESTOD DEL AUTOMOTOR - RODAMIENTOS - KITS DE DISTRIBUCI\u00d3N - BOMBAS DE AGUA - CORREAS - TENSORES - RETENES - CRUCETAS - TRICETAS - MASAS - ENV\u00cdOS AL INTERIOR", "url": "", "section": "repuestos-para-el-auto", "phone": "(0299) 448 - 2603", "location": " Neuqu\u00e9n - Neuquen ", "address": " T L Planas 635  "}, {"name": "Todo Repuestos - Fiat y Chevrolet", "tags": "ESMERADA ATENCI\u00d3N  -  REPUESTOS ORIGINALES E IMPORTADOS  -  LUBRICENTRO  -  ENCENDIDO  -  DIRECCI\u00d3N  -  FRENOS  -  ELECTRICIDAD  -  ACCESORIOS", "url": "", "section": "repuestos-para-el-auto", "phone": "(0362) 445 - 1079", "location": " Resistencia - Chaco ", "address": " Av Alvear 429  "}, {"name": "Autorep de Jc Piermattei", "tags": "REPUESTOS MULTIMARCA  -  INYECCI\u00d3N ELECTR\u00d3NICA  -  FRENOS  -  LUBRICANTES  -  PEDIDOS ESPECIALES POR ENCARGUE  -  STOCK PERMANENTE", "url": "", "section": "repuestos-para-el-auto", "phone": "(0341) 465 - 4600", "location": " Rosario - Santa Fe ", "address": " Av O Lagos 5384  "}, {"name": "Servimec", "tags": "REPUESTOS JAPONESES -  tenemos lo mejor en un solo lugar", "url": "http://www.servimecrepuestos.com.ar", "section": "repuestos-para-el-auto", "phone": "", "location": " Paran\u00e1 - Entre Rios ", "address": " Ruta 18 Km 13,5   "}, {"name": "Rep - Trans", "tags": "REPUESTOS PARA EL TRANSPORTE  -  CAMIONES  -  UTILITARIOS Y OMNIBUS", "url": "http://www.rep-trans.com", "section": "repuestos-para-el-auto", "phone": "", "location": " Rosario - Santa Fe ", "address": " Mitre 2644  "}, {"name": "Districen SRL", "tags": "DISTRIBUIDOR MAYORISTA  -  AUTOMOTORES  -  ELECTRICIDAD  -  REPUESTOS", "url": "", "section": "repuestos-para-el-auto", "phone": "(0351) 424 - 5410", "location": " C\u00f3rdoba - Cordoba ", "address": " Av Bv Guzm\u00e1n 735   "}, {"name": "Todo Parts - Autopartes & Accesorios", "tags": "NACIONALES E IMPORTADOS", "url": "http://www.todo-parts.com", "section": "repuestos-para-el-auto", "phone": "(011) 4683 - 4810", "location": " Mataderos - Ciudad de Buenos Aires ", "address": " Larraya 1560  "}, {"name": "Nippon Rafaela", "tags": "HYUNDAI  -  TOYOTA  -  HONDA  -  MITSUBISHI  -  KIA", "url": "http://www.nipponrafaela.com.ar", "section": "repuestos-para-el-auto", "phone": "", "location": " Rafaela - Santa Fe ", "address": " Av Angel De La Casa 272   "}, {"name": "Ondemar Suspensiones - Division - Servicios", "tags": "REPARACI\u00d3N E INSTALACI\u00d3N DE TREN DELANTERO  -  SUSPENSIONES DEPORTIVAS. eEXPERTOS EN SUSPENSION NEUMATICA", "url": "http://www.ondemarsuspensiones.com", "section": "repuestos-para-el-auto", "phone": "", "location": " Rosario - Santa Fe ", "address": " Jun\u00edn 1470  "}, {"name": "La Casa del Renault", "tags": "REPUESTOS ORIGINALES Y ACCESORIOS  -  ENV\u00cdOS AL INTERIOR CONTRA REEMBOLSO", "url": "http://www.lacasadelrenaultcte.com", "section": "repuestos-para-el-auto", "phone": "(0379) 442 - 5140", "location": " Corrientes - Corrientes ", "address": " Av Artigas 1276  "}, {"name": "El Fronterizo SRL", "tags": "AUTOMOTORES", "url": "", "section": "repuestos-para-el-auto", "phone": "", "location": " Olavarr\u00eda - Buenos Aires ", "address": " Calle 146 3298   "}, {"name": "Continental Repuestos", "tags": "REPUESTOS MULTIMARCAS  -  LIVIANOS Y PESADOS", "url": "", "section": "repuestos-para-el-auto", "phone": "(02954) 42 - 4023", "location": " Santa Rosa - La Pampa ", "address": " Av P Luro 1265  "}, {"name": "Hector J Ruiz Repuestos", "tags": "TODO EN INYECCI\u00d3N ELECTR\u00d3NICA  -  FIAT  -  VOLKSWAGEN  -  RENAULT  -  CHEVROLET", "url": "http://www.hectorjruizrepuestos.com", "section": "repuestos-para-el-auto", "phone": "(0385) 427 - 6348", "location": " La Banda - Santiago del Estero ", "address": " Espa\u00f1a 661  "}, {"name": "Sudamerica Repuestos", "tags": "ELECTRICIDAD  -  ENCENDIDO  -  INYECCI\u00d3N  -  REPUESTOS  -  ACCESORIOS", "url": "", "section": "repuestos-para-el-auto", "phone": "(011) 4696 - 2933", "location": " Mor\u00f3n - Buenos Aires ", "address": " Curupayt\u00ed 1099   "}, {"name": "Electricar SRL", "tags": "CON MAS DE 25 A\u00d1OS DE EXPERIENCIA A LA VENTA DE REPUESTOS AUTOMOTOR (MAQUINA VIALES Y MINERO)REPARACION DE ALTERNADORES Y ARRANCADORES", "url": "http://www.electricarsrl.com", "section": "repuestos-para-el-auto", "phone": "", "location": " San Juan - San Juan ", "address": " Av G Rawson S 184  "}, {"name": "Heriberto Menna - Repuestos y Herramientas", "tags": "REPUESTOS EN GENERAL  -  HERRAMIENTAS", "url": "", "section": "repuestos-para-el-auto", "phone": "(02983) 48 - 2002", "location": " Adolfo Gonz\u00e1lez Chaves - Buenos Aires ", "address": " General Paz 565  "}, {"name": "Ondemar Suspensiones", "tags": "REPARACI\u00d3N DE AMORTIGUADORES  -  REPUESTOS", "url": "http://www.ondemarsuspensiones.com", "section": "repuestos-para-el-auto", "phone": "(0341) 438 - 1418", "location": " Rosario - Santa Fe ", "address": " Pje Rusi\u00f1ol 434  "}, {"name": "Inyeccion Sur", "tags": "LIMPIEZA DE INYECTORES  -  ENCENDIDO ELECTR\u00d3NICO  -  BURRO DE ARRANQUE  -  ALTERNADORES", "url": "", "section": "repuestos-para-el-auto", "phone": "", "location": " Temperley - Buenos Aires ", "address": " Av E Per\u00f3n 3368  "}, {"name": "Autopartes Paz", "tags": "PARTES DE CARROCER\u00cdAS Y ACCESORIOS PARA AUTOMOTORES DE LA L\u00cdNEA IMPORTADOS  -  CERRAJER\u00cdA DEL AUTOMOTOR", "url": "http://www.multichapaz.com", "section": "repuestos-para-el-auto", "phone": "(0249) 442 - 7097", "location": " Tandil - Buenos Aires ", "address": " Av Marconi 1711  "}, {"name": "Pirelli Goma", "tags": "SOPORTES GOMA  -  METAL  -  MOTORES  -  CABINAS  -  CARROCER\u00cdAS  -  VENTA DE REPUESTOS EN GENERAL  -  SERVICIOS AGROPECUARIOS", "url": "http://www.pirelligoma.com", "section": "repuestos-para-el-auto", "phone": "", "location": " Reconquista - Santa Fe ", "address": " P Diez 876  "}, {"name": "Re-Ford", "tags": "REPUESTOS Y ACCESORIOS FORD  -  RENAULT  -  CHEVROLET", "url": "", "section": "repuestos-para-el-auto", "phone": "(03865) 42 - 7420", "location": " Concepci\u00f3n - Tucuman ", "address": " Moreno 1531  "}, {"name": "Casa Pablo", "tags": "FERRETER\u00cdA  -  ACCESORIOS PARA EL AUTOMOTOR  -  LUBRICANTES", "url": "", "section": "repuestos-para-el-auto", "phone": "(02357) 42 - 1432", "location": " Carlos Tejedor - Buenos Aires ", "address": " E y S Garr\u00e9 645   "}, {"name": "Casa Sica", "tags": "REPUESTOS AUTOMOTORES EN GENERAL", "url": "", "section": "repuestos-para-el-auto", "phone": "(0343) 498 - 1955", "location": " Diamante - Entre Rios ", "address": " Tratado Del Pilar 476  "}, {"name": "Julio Salomone y Marcela Salomone Sh", "tags": "REPUESTOS PARA AUTOS TODAS LAS MARCAS  -  BULONER\u00cdA", "url": "http://www.repuestossalomoneymarcela.com", "section": "repuestos-para-el-auto", "phone": "(0299) 491 - 1272", "location": " Catriel - Rio Negro ", "address": " Av R S\u00e1enz Pe\u00f1a 52  "}, {"name": "Arias Elasticos - Repuestos Automotor y Acoplados", "tags": "REPUESTOS EN GENERAL", "url": "", "section": "repuestos-para-el-auto", "phone": "(03876) 48 - 1752", "location": " Rosario de la Frontera - Salta ", "address": " Quinquela Mart\u00edn 30   "}, {"name": "Repuestos Peu", "tags": "REPUESTOS PEUGEOT  -  ACCESORIOS PEUGEOT  -  KIT DE DISTRIBUCI\u00d3N  -  OPTICAS  -  ACEITE  -  FILTROS", "url": "", "section": "repuestos-para-el-auto", "phone": "(0221) 479 - 2984", "location": " La Plata - Buenos Aires ", "address": " Avenida 44 1320  "}, {"name": "Vca Repuestos", "tags": "SOMOS DISTRIBUIDORES OFICIALES DE REPUESTOS Y ACCESORIOS TOYOTA Y CHERY  -  REPUESTOS ORIGINALES Y ALTERNATIVOS", "url": "https://vcarepuestos.com/", "section": "repuestos-para-el-auto", "phone": "(0351) 484 - 2503", "location": " C\u00f3rdoba - Cordoba ", "address": " Av S Familia 112  "}, {"name": "Repuestos el Pampeanito", "tags": "OFRECE REPUESTOS AUTOMOTORES PARA CAMIONES Y COLECTIVOS CON LA CALIDAD DE EXCELENCIA QUE USTED NECESITA  -  35 A\u00d1OS DE EXPERIENCIA", "url": "", "section": "repuestos-para-el-auto", "phone": "(02928) 41 - 0785", "location": " Pedro Luro - Buenos Aires ", "address": " Calle 1 1278  "}, {"name": "Todo Citro\u00ebn", "tags": "REPUESTOS CITRO\u00cbN", "url": "", "section": "repuestos-para-el-auto", "phone": "(0221) 421 - 1504", "location": " La Plata - Buenos Aires ", "address": " 55 1005  "}, {"name": "La Casa del Dinamo y Arranque", "tags": "ALTERNADORES  -  REPUESTOS", "url": "", "section": "repuestos-para-el-auto", "phone": "(0297) 446 - 1685", "location": " Comodoro Rivadavia - Chubut ", "address": " L N Alem 183  "}, {"name": "Chapa Oeste", "tags": "VENTA DE AUTOPARTES  -  ACCESORIOS  -  TODAS LAS MARCAS NACIONALES E IMPORTADAS", "url": "http://www.chapaoeste.com.ar", "section": "repuestos-para-el-auto", "phone": "", "location": " Laferrere - Buenos Aires ", "address": " Av J M De Rosas 10868  "}, {"name": "Arlotti Alejandro y Ma Ines Sh", "tags": "TALLER MEC\u00c1NICO INTEGRAL  -  AFINACI\u00d3N DE MOTORES", "url": "", "section": "repuestos-para-el-auto", "phone": "", "location": " La Paz - Entre Rios ", "address": " Ruta 1 Km 3,5   "}, {"name": "Fabiano - Repuestos para Mercedes Benz", "tags": "REPUESTOS PARA AUTOS", "url": "http://www.fabianorepuesto.com.ar", "section": "repuestos-para-el-auto", "phone": "(0341) 423 - 0305", "location": " Rosario - Santa Fe ", "address": " Bv 27 De Febrero 1460  "}, {"name": "Davi\u00f1a Ramon e Hijo", "tags": "L\u00cdNEA COMPLETA DE REPUESTOS Y ACCESORIOS PARA AUTOS Y CAMIONES  -  NACIONALES E IMPORTADOS", "url": "", "section": "repuestos-para-el-auto", "phone": "", "location": " San Pedro - Buenos Aires ", "address": " C Pellegrini 1160  "}, {"name": "Jaunarena Sergio Automotores", "tags": "AUTOMOTORES  -  AGENCIAS  -  VENTA Y COMPRA DE AUTOS", "url": "http://www.jaunarena-automotores.com", "section": "repuestos-para-el-auto", "phone": "(0249) 444 - 5969", "location": " Tandil - Buenos Aires ", "address": " Arana 401  "}, {"name": "Recambios Delta S R L", "tags": "VIGIA  -  GNC  -  REPUESTOS  -  AUTOMOTOR  -  TALLER MEC\u00c1NICO  -  CENTRO AUTOMOTOR", "url": "", "section": "repuestos-para-el-auto", "phone": "(0291) 453 - 0137", "location": " Bah\u00eda Blanca - Buenos Aires ", "address": " Granada 45  "}, {"name": "El Vasquito Repuestos", "tags": "CASA DE REPUESTOS DE ELECTRICIDAD DEL AUTOMOTOR - DISTRIBUIDOR DE BATER\u00cdAS MOURA - ALTERNADORES - ARRANQUES - ENCENDIDOS - SU CONSULTA NO MOLESTA", "url": "", "section": "repuestos-para-el-auto", "phone": "(0261) 431 - 9702", "location": " San Jos\u00e9 - Mendoza ", "address": " Bandera De Los Andes 2398  "}, {"name": "Ford Oeste SA", "tags": "ACCESORIOS Y REPUESTOS", "url": "", "section": "repuestos-para-el-auto", "phone": "", "location": " Rafaela - Santa Fe ", "address": " Dr E Zeballos 444  "}, {"name": "Inb Automotores", "tags": "0 KM  -  USADOS", "url": "http://www.inbautomotores.com", "section": "repuestos-para-el-auto", "phone": "(0353) 453 - 1174", "location": " Villa Mar\u00eda - Cordoba ", "address": " Bv Col\u00f3n 287  "}, {"name": "Imperiorep Toyota", "tags": "REPUESTOS ORIGINALES Y ALTERNATIVOS TOYOTA  -  CONSULTAS POR MARCAS IMPORTADAS NISSAN  -  HONDA  -  KIA  -  MAZDA  -  ISUZU  -  CHERY", "url": "http://www.imperioreptoyota.com", "section": "repuestos-para-el-auto", "phone": "(0358) 463 - 7108", "location": " R\u00edo Cuarto - Cordoba ", "address": " Leyes Obreras 99  "}, {"name": "Lv - Accesorios de Koi SRL", "tags": "CERRAJER\u00cdA PARA EL AUTOMOTOR  -  AUTOPARTES", "url": "", "section": "repuestos-para-el-auto", "phone": "", "location": " General Roca - Rio Negro ", "address": " 9 De Julio 1199  "}, {"name": "Repuestera Belgrano de Dora Herrando", "tags": "AUTOMOTORES MULTIMARCA  -  REPUESTOS  -  TREN DELANTERO  -  FILTROS  -  AMORTIGUADORES  -  FRENOS  -  ESPEJOS  -  BATER\u00cdAS", "url": "", "section": "repuestos-para-el-auto", "phone": "(03876) 42 - 0601", "location": " Met\u00e1n - Salta ", "address": " Belgrano Este 201   "}, {"name": "Repuestos Avenida", "tags": "REPUESTOS ORIGINALES Y ALTERNATIVOS  -  AMPLIO STOCK  -  MODELOS VIEJOS Y NUEVOS  -  ENV\u00cdOS A TODO EL PA\u00cdS  -  MERCADO PAGO  -  2 SUCURSALES", "url": "http://www.repuestosav.com", "section": "repuestos-para-el-auto", "phone": "(011) 4750 - 4640", "location": " Caseros - Buenos Aires ", "address": " M T De Alvear 2699  "}, {"name": "Aiassa Repuestos", "tags": "TODAS LAS MARCAS", "url": "", "section": "repuestos-para-el-auto", "phone": "", "location": " Rafaela - Santa Fe ", "address": " Lavalle 701  "}, {"name": "Bracco Marcelo - Mecanica en General", "tags": "SERVICIO DE MANTENIMIENTO  -  DIAGN\u00d3STICO COMPUTARIZADO", "url": "http://www.braccomarcelo.com", "section": "repuestos-para-el-auto", "phone": "(0380) 446 - 3458", "location": " La Rioja - La Rioja ", "address": " Av R De Velazco 831  "}, {"name": "Buloneria Gonzalez Sh", "tags": "REPUESTOS AUTOMOTOR - EL\u00c1STICOS P/CAMIONES - BULONER\u00cdA - FERRETER\u00cdA - HERRAMIENTAS", "url": "", "section": "repuestos-para-el-auto", "phone": "(0260) 447 - 1929", "location": " Malarg\u00fce - Mendoza ", "address": " Av Gral Ortega 1181  "}, {"name": "La Nueva Esquina Repuestos", "tags": "REPUESTOS PARA SUSPENSI\u00d3N Y TREN DELANTERO", "url": "", "section": "repuestos-para-el-auto", "phone": "(02323) 42 - 4838", "location": " Luj\u00e1n - Buenos Aires ", "address": " A Alsina 708  "}, {"name": "Abiega Acumuladores", "tags": "VENTA DE BATER\u00cdAS  -  REPUESTOS DE ELECTRICIDAD DE AUTOMOTORES", "url": "", "section": "repuestos-para-el-auto", "phone": "(03436) 42 - 2891", "location": " Victoria - Entre Rios ", "address": " 9 De Julio 215  "}, {"name": "Lomas - Dodge - Ford - Volkswagen - Rtos Orig", "tags": "VENTA DE REPUESTOS ORIGINALES DE  FORD  -  VOLKSWAGEN", "url": "http://www.lomas-dodge.com", "section": "repuestos-para-el-auto", "phone": "(011) 4292 - 0250", "location": " Temperley - Buenos Aires ", "address": " Av H Yrigoyen 10131  "}, {"name": "Funcia", "tags": "PARA MAYOR INFORMACI\u00d3N VER + INFO", "url": "http://www.funciarepuestos.com.ar", "section": "repuestos-para-el-auto", "phone": "(0266) 442 - 4230", "location": " San Luis - San Luis ", "address": " Av Ej De Los Andes 1144  "}, {"name": "La Casa del Motor de Ivana Murisengo", "tags": "VENTA DE REPUESTOS PARA LA RECTIFICACI\u00d3N Y/O REPARACI\u00d3N DE MOTORES DE AUTOS  -  CAMIONES Y MAQUINARIAS", "url": "http://www.casadelmotor.com.ar", "section": "repuestos-para-el-auto", "phone": "(02477) 44 - 1306", "location": " Pergamino - Buenos Aires ", "address": " Bv Paraguay 421  "}, {"name": "Repuestos Ruiz", "tags": "REPUESTOS DEL AUTOMOTOR EN GENERAL  -  TARJETAS DE CR\u00c9DITO Y D\u00c9BITO", "url": "", "section": "repuestos-para-el-auto", "phone": "(02224) 47 - 0748", "location": " Guernica - Buenos Aires ", "address": " H Yrigoyen 23983  "}, {"name": "El Cica", "tags": "AUTOPARTES Y ACCESORIOS PARA EL AUTOMOTOR  -  TODAS LAS MARCAS", "url": "", "section": "repuestos-para-el-auto", "phone": "(02326) 45 - 7012", "location": " San Antonio de Areco - Buenos Aires ", "address": " Aubain 161  "}, {"name": "Casa Ojeda - Repuestos Todas las Marcas", "tags": "REPUESTOS PARA LA ELECTRICIDAD DEL AUTOMOTOR  -  FAROS  -  DIODOS  -  ALTERNADORES  -  BATER\u00cdAS  -  BOBINAS  -  SENSORES  -  REGULADORES DE VOLTAJES", "url": "http://www.casa-ojeda.com", "section": "repuestos-para-el-auto", "phone": "(02954) 42 - 4657", "location": " Santa Rosa - La Pampa ", "address": " C Fern\u00e1ndez 480  "}, {"name": "Taller Irala", "tags": "REPARACI\u00d3N EL\u00c9CTRICA DEL AUTOMOTOR", "url": "http://www.tallerirala.com", "section": "repuestos-para-el-auto", "phone": "(011) 4302 - 3694", "location": " Barracas - Ciudad de Buenos Aires ", "address": " Irala 1485  "}, {"name": "Gonzalez Luis a", "tags": "ELECTRICIDAD DEL AUTOMOTOR  -  CLIMATIZADORES VIAGGIO  -  BATER\u00cdAS  -  AIRE ACONDICIONADO", "url": "", "section": "repuestos-para-el-auto", "phone": "(0291) 454 - 5309", "location": " Bah\u00eda Blanca - Buenos Aires ", "address": " Blandengues 1440  "}, {"name": "Basovih Juan Carlos", "tags": "L\u00cdNEA GENERAL  -  NACIONALES E IMPORTADOS", "url": "", "section": "repuestos-para-el-auto", "phone": "(03329) 42 - 6656", "location": " San Pedro - Buenos Aires ", "address": " Lavalle 270  "}, {"name": "Todo Volkswagen", "tags": "NOS DEDICAMOS A TODA LA L\u00cdNEA DE REPUESTOS VOLKSWAGEN  -  REPUESTOS  -  ACCESORIOS  -  CHAPER\u00cdA", "url": "http://www.todo-volkswagen.com", "section": "repuestos-para-el-auto", "phone": "", "location": " Godoy Cruz - Mendoza ", "address": " Brasil 399  "}, {"name": "Mercedes la Plata SRL", "tags": "DISTRIBUIDOR EXCLUSIVO PARA LATINOAM\u00c9RICA", "url": "http://www.mercedeslaplata.com", "section": "repuestos-para-el-auto", "phone": "(0221) 496 - 2811", "location": " La Plata - Buenos Aires ", "address": " Ruta 36 790  "}, {"name": "Lubricentro Goya - Lubricantes y Venta de Repuestos", "tags": "LUBRICANTES DISTR ELF  -  TOTAL Y FRIC - ROT  Y VENTA DE REPUESTOS", "url": "http://www.lubricentrogoya.com.ar", "section": "repuestos-para-el-auto", "phone": "", "location": " Goya - Corrientes ", "address": " Av Madariaga 278  "}, {"name": "Rectificaciones a del Valle de e Lopez Gonzalez", "tags": "RECTIFICACI\u00d3N DE MOTORES  -  VENTA DE REPUESTOS ORIGINALES", "url": "", "section": "repuestos-para-el-auto", "phone": "", "location": " Santa Fe - Santa Fe ", "address": " Av A Del Valle 7880  "}, {"name": "Yellow Cab", "tags": "REPUESTOS TODAS LAS MARCAS  -  CAMBIO DE ACEITE Y FILTRO  -  MANO DE OBRA SIN CARGO", "url": "http://www.yellowcabsrl.com", "section": "repuestos-para-el-auto", "phone": "(0381) 434 - 5164", "location": " San Miguel de Tucum\u00e1n - Tucuman ", "address": " Belgrano 3895  "}, {"name": "Repuestos Cruz", "tags": "REPUESTOS EL\u00c9CTRICOS DEL AUTOMOTOR", "url": "", "section": "repuestos-para-el-auto", "phone": "(0236) 442 - 7336", "location": " Jun\u00edn - Buenos Aires ", "address": " B De Miguel 338  "}, {"name": "Ruben F Arribillaga - Agencia Multimarcas", "tags": "CONCESIONARIO OFICIAL CHERY  -  REPUESTOS CHERY  -  NUEVOS  -  USADOS  -  CONSIGNACIONES", "url": "http://www.arribillagaautos.com.ar", "section": "repuestos-para-el-auto", "phone": "", "location": " Necochea - Buenos Aires ", "address": " Calle 57 2371  "}, {"name": "Repuestos - Autorrepuestos del Oeste", "tags": "REPUESTOS EN GENERAL  -  TODAS LAS MARCAS", "url": "", "section": "repuestos-para-el-auto", "phone": "", "location": " Bah\u00eda Blanca - Buenos Aires ", "address": " Don Bosco 1422  "}, {"name": "Kiszcka Repuestos", "tags": "REPUESTOS PARA CAMIONES Y COLECTIVOS  -  MERCEDES - BENZ  -  L\u00cdNEA PESADA  -  AUTOS", "url": "", "section": "repuestos-para-el-auto", "phone": "(0362) 446 - 4711", "location": " Resistencia - Chaco ", "address": " Av 25 De Mayo 1975  "}, {"name": "Luka'S Motors - Repuestos de Motor", "tags": "REPUESTOS DE MOTOR  -  CONJUNTOS  -  JUNTAS  -  COJINETES", "url": "", "section": "repuestos-para-el-auto", "phone": "", "location": " Villa Allende - Cordoba ", "address": " Av D Alvarez 1006   "}, {"name": "Repuestos Lavalle", "tags": "KIT DE DISTRIBUCI\u00d3N  -  SUSPENSI\u00d3N  -  EMBRAGUES  -  FRENOS", "url": "", "section": "repuestos-para-el-auto", "phone": "", "location": " Z\u00e1rate - Buenos Aires ", "address": " Lavalle 1750  "}, {"name": "Chaperio Urquiza", "tags": "AUTOPARTES Y EQUIPAMIENTO 4X4", "url": "http://www.chaperiourquiza.com", "section": "repuestos-para-el-auto", "phone": "(0345) 421 - 5048", "location": " Concordia - Entre Rios ", "address": " Av San Lorenzo Oeste 132  "}, {"name": "Sanz - Repuestos Automotores", "tags": "TODAS LAS MARCAS", "url": "http://www.repuestossanz.com", "section": "repuestos-para-el-auto", "phone": "(0261) 491 - 3758", "location": " Rodeo de la Cruz - Mendoza ", "address": " Bandera De Los Andes 9735   "}, {"name": "Camav - Amortiguadores Especiales", "tags": "OFRECEMOS SERVICIOS DE INGENIER\u00cdA EN AMORTIGUADORES COMO EN DESARROLLOS DE CHASIS - SUSPENSIONES - PARTES - SISTEMAS MEC\u00c1NICOS - COMPETICI\u00d3N - ESPECIALES", "url": "http://www.camav.com.ar", "section": "repuestos-para-el-auto", "phone": "(0341) 456 - 1511", "location": " Rosario - Santa Fe ", "address": " French 6771  "}, {"name": "Fiat Moreno - Repuestos y Accesorios Fiat", "tags": "L\u00cdNEA COMPLETA DE REPUESTOS Y ACCESORIOS FIAT", "url": "http://www.fiatmorenomartinez.com", "section": "repuestos-para-el-auto", "phone": "(011) 4766 - 2572", "location": " Villa Adelina - Buenos Aires ", "address": " Av Fondo De La Legua 2352   "}, {"name": "Sur Competicion", "tags": "REPUESTOS Y ACCESORIOS EN GENERAL  -  BATER\u00cdAS  -  AMORTIGUADORES", "url": "", "section": "repuestos-para-el-auto", "phone": "(02966) 42 - 0557", "location": " R\u00edo Gallegos - Santa Cruz ", "address": " M Moreno 186  "}, {"name": "Tanos Repuestos", "tags": "REPUESTOS NUEVOS  -   MULTIMARCA", "url": "", "section": "repuestos-para-el-auto", "phone": "", "location": " Lastenia - Tucuman ", "address": " San Luis 324  "}, {"name": "Repuestos 1199", "tags": "VENTAS POR MAYOR Y MENOR - REPUESTOS MULTIMARCA NACIONALES - BATER\u00cdAS - KIT DE DISTRIBUCI\u00d3N - EMBRAGUES - FRENOS - AMORTIGUADORES - ACEITES Y LUBRICANTES", "url": "", "section": "repuestos-para-el-auto", "phone": "", "location": " Grand Bourg - Buenos Aires ", "address": " Av Eva Per\u00f3n 829  "}, {"name": "Casa Val", "tags": "TODO PARA EL AUTOMOTOR  -  CERRAJER\u00cdA  -  AUTOPARTES  -  BURLETER\u00cdA  -  ENCENDIDOS", "url": "", "section": "repuestos-para-el-auto", "phone": "(02657) 42 - 4035", "location": " Villa Mercedes - San Luis ", "address": " Urquiza 222  "}, {"name": "Gercam - Repuesto Motor", "tags": "VENTA DE REPUESTOS PARA MOTORES DE AUTOS  -  TODAS LAS MARCAS  -  BIELAS  -  BOMBAS DE ACEITE  -  KIT DE DISTRIBUCI\u00d3N  -  RETENES", "url": "", "section": "repuestos-para-el-auto", "phone": "(0351) 451 - 5362", "location": " C\u00f3rdoba - Cordoba ", "address": " Av E Bulnes 2362  "}, {"name": "Repuestos Potoc", "tags": "REPUESTOS  -  ACCESORIOS  -  TREN DELANTERO  -  SUSPENSI\u00d3N", "url": "", "section": "repuestos-para-el-auto", "phone": "", "location": " Santa Rosa - La Pampa ", "address": " Av Luro 1561  "}, {"name": "Citro\u00ebn Alvarado", "tags": "CITRO\u00cbN  -  REPUESTOS  -  ACCESORIOS  -  ENV\u00cdOS AL INTERIOR", "url": "http://www.citroenalvarado.com.ar", "section": "repuestos-para-el-auto", "phone": "", "location": " Mar del Plata - Buenos Aires ", "address": " Alvarado 4234  "}, {"name": "Encendido Leo - Repuesto Automotor", "tags": "REPUESTOS DE INYECCI\u00d3N  -  ARRANQUE  -  ALTERNADOR Y ACCESORIOS", "url": "", "section": "repuestos-para-el-auto", "phone": "", "location": " Bella Vista - Buenos Aires ", "address": " Av San Mart\u00edn 757  "}, {"name": "Fiat la Plata", "tags": "REPUESTOS ORIGINALES  -  NACIONALES E IMPORTADOS", "url": "http://www.fiatlp.com.ar", "section": "repuestos-para-el-auto", "phone": "(0221) 479 - 8366", "location": " La Plata - Buenos Aires ", "address": " 30 71  "}, {"name": "La Casa de los 1000 Faros", "tags": "REPUESTOS DE AUTOMOTORES  -  TODAS LAS MARCAS", "url": "http://www.lacasadelos1000faros.com", "section": "repuestos-para-el-auto", "phone": "(0353) 453 - 7229", "location": " Villa Mar\u00eda - Cordoba ", "address": " Av Cnel Larrabure 1750  "}, {"name": "Warnes Work", "tags": "ASIENTOS  -  VIDRIOS  -  REVESTIMIENTOS INTERNOS", "url": "http://www.warneswork.com.ar", "section": "repuestos-para-el-auto", "phone": "", "location": " Villa Crespo - Ciudad de Buenos Aires ", "address": " Av Warnes 741  "}, {"name": "J & L - Herrando", "tags": "REPUESTOS Y ACCESORIOS PARA AUTOMOTOR  -  TODAS LAS MARCAS", "url": "http://www.jylherrando.com", "section": "repuestos-para-el-auto", "phone": "", "location": " Met\u00e1n - Salta ", "address": " Tucum\u00e1n Oeste 42  "}, {"name": "Repuestos la Union", "tags": "VENTA REPUESTOS  -  ACCESORIOS  -  GAS ENVASADO  -  AUTOPARTES Y M\u00c1S  -  NOS ACOMODAMOS A TU PRESUPUESTO  -  PROMO EN BATER\u00cdAS Y ANTICONGELANTES", "url": "http://www.repuestoslaunion.com", "section": "repuestos-para-el-auto", "phone": "", "location": " Esquel - Chubut ", "address": " Chacabuco 625  "}, {"name": "Repuestos y Lubricentros Alex", "tags": "VENTA AUTOMOTOR EN GRAL - ENCENDIDO - LUBRICANTES - CARBURACI\u00d3N - TREN DELANTERO - FRENOS - EMBRAGUE - INYECCI\u00d3N - TODOS LOS MEDIOS DE PAGO", "url": "", "section": "repuestos-para-el-auto", "phone": "", "location": " Ezpeleta - Buenos Aires ", "address": " Av F Varela Oeste 2705  "}, {"name": "Godoil Repuestos", "tags": "ATENDEMOS S\u00c1BADO POR LA TARDE  -  DOMINGOS Y FERIADOS MEDIO D\u00cdA", "url": "http://www.godoilrepuestos.com", "section": "repuestos-para-el-auto", "phone": "(0261) 445 - 2751", "location": " San Jos\u00e9 - Mendoza ", "address": " Godoy Cruz 2448  "}, {"name": "Encendido Limay", "tags": "TODA LA L\u00cdNEA DE ENCENDIDO PARA AUTOMOTORES NAC E IMPORTADOS", "url": "http://www.encendidolimay.com.ar", "section": "repuestos-para-el-auto", "phone": "(0299) 443 - 1085", "location": " Neuqu\u00e9n - Neuquen ", "address": " F San Mart\u00edn 1060  "}, {"name": "Fiat y Vw Repuestos", "tags": "AUTOMOTORES", "url": "http://www.fiat-repuestos.com", "section": "repuestos-para-el-auto", "phone": "(0387) 431 - 1221", "location": " Salta - Salta ", "address": " Av San Mart\u00edn 1642  "}, {"name": "Repuestos Pesados Ca\u00f1uelas", "tags": "REPUESTOS DE AUTOS  -  CAMIONETAS Y SEMIACOPLADOS Y ACCESORIOS PARA CAMIONES", "url": "", "section": "repuestos-para-el-auto", "phone": "(02226) 42 - 1193", "location": " Ca\u00f1uelas - Buenos Aires ", "address": " Ruta 3   "}, {"name": "Electropartes D & D", "tags": "REPUESTOS DE ENCENDIDO  -  ELECTRICIDAD E INYECCI\u00d3N DE NAFTA", "url": "http://www.electropartesdyd.com.ar", "section": "repuestos-para-el-auto", "phone": "(02396) 47 - 7007", "location": " Pehuaj\u00f3 - Buenos Aires ", "address": " J D Per\u00f3n 424   "}, {"name": "Electro 10", "tags": "ELECTRICIDAD  -  BATER\u00cdAS", "url": "", "section": "repuestos-para-el-auto", "phone": "(0364) 442 - 1025", "location": " Presidencia Roque S\u00e1enz Pe\u00f1a - Chaco ", "address": " Laprida 540   "}, {"name": "Repuestos y Lubricantes el Argentino", "tags": "VTA DE REPTO FIAT Y PEUGEOT - LUBRICANTES YPF - TOTAL - SHELL - BOMBAS DE AGUA - BUJ\u00cdAS CHAMPION - BOMBAS CIN\u00c9TICAS - TREN DELANTERO - CAMBIO DE ACEITE - FILTROS", "url": "", "section": "repuestos-para-el-auto", "phone": "(0260) 15 - 456 - 0527", "location": " San Rafael - Mendoza ", "address": " Mitre 485   "}, {"name": "Repuestos Reimer", "tags": "REPUESTOS PARA PESADOS  -  TURBOS GARRETT  -  WABCO  -  KNORR  -  REPUESTOS L\u00cdNEA MERCEDEZ BENZ", "url": "", "section": "repuestos-para-el-auto", "phone": "(0343) 434 - 8347", "location": " Paran\u00e1 - Entre Rios ", "address": " Almafuerte 601  "}, {"name": "Repuestos Auciello", "tags": "REPUESTOS PARA ELECTRICIDAD  -  AUTOMOTOR  -  CORREAS  -  RETENES", "url": "http://www.repuestosauciello.com", "section": "repuestos-para-el-auto", "phone": "(02245) 44 - 6753", "location": " Dolores - Buenos Aires ", "address": " San Mart\u00edn 34  "}, {"name": "Linares Vicente a", "tags": "REPUESTOS LEG\u00cdTIMOS Y SERVICIO AUTORIZADO  -  FORD  -  GM  -  NISSAN Y M\u00c1S", "url": "http://www.linaresrepuestos.com.ar", "section": "repuestos-para-el-auto", "phone": "", "location": " Concordia - Entre Rios ", "address": " Gral Urdinarra\u00edn 440  "}, {"name": "Bobinados Aguilar Taller", "tags": "REPUESTOS PARA AUTOMOTOR DE TODAS LAS MARCAS", "url": "", "section": "repuestos-para-el-auto", "phone": "(03442) 44 - 1296", "location": " Concepci\u00f3n del Uruguay - Entre Rios ", "address": " Bv R Uncal 341  "}, {"name": "Repuestos Perulan", "tags": "REPUESTOS PARA RODADOS LIVIANOS Y PESADOS  -  MOTOS  -  M\u00c1QUINAS AGR\u00cdCOLAS", "url": "", "section": "repuestos-para-el-auto", "phone": "", "location": " Tunuy\u00e1n - Mendoza ", "address": " Pellegrini 301  "}, {"name": "Repuestos Cordillera", "tags": "RENAULT  -  VOLKSWAGEN  -  TREN DELANTERO  -  TODAS LAS MARCAS", "url": "", "section": "repuestos-para-el-auto", "phone": "(0351) 482 - 0396", "location": " C\u00f3rdoba - Cordoba ", "address": " Av Cordillera 4852  "}, {"name": "Full Battery", "tags": "BATER\u00cdAS Y REPUESTOS PARA EL AUTOMOTOR", "url": "http://www.fullbattery.com.ar", "section": "repuestos-para-el-auto", "phone": "(011) 4713 - 7463", "location": " San Mart\u00edn - Buenos Aires ", "address": " Mitre 4343  "}, {"name": "Autorector SRL", "tags": "RECTIFICACI\u00d3N DE MOTORES  -  VENTA DE REPUESTOS PARA AUTOS", "url": "", "section": "repuestos-para-el-auto", "phone": "(0343) 424 - 3526", "location": " Paran\u00e1 - Entre Rios ", "address": " Zenteno Pedro Pbro 794  "}, {"name": "Chevizur Repuestos", "tags": "EMPRESA CON M\u00c1S DE 22 A\u00d1OS DE EXPERIENCIA EN EL RUBRO BRINDANDOTE LO MEJOR EN REPUESTOS ORIGINALES RENAULT  -  CHEVROLET", "url": "http://www.chevizurrepuestos.com", "section": "repuestos-para-el-auto", "phone": "(02964) 42 - 7448", "location": " R\u00edo Grande - Tierra del Fuego ", "address": " B Rivadavia 837  "}, {"name": "Davoli Olindo - Repuestos Peugeot", "tags": "ACCESORIOS Y REPUESTOS ORIGINALES PARA AUTOMOTORES DE LA MARCA PEUGEOT Y CITRO\u00cbN  -  TODO PARA DIRECCION DEL AUTOMOTOR.", "url": "http://www.davoliolindorepuestos.com", "section": "repuestos-para-el-auto", "phone": "", "location": " San Juan - San Juan ", "address": " 25 De Mayo Oeste 349  "}, {"name": "Lola Autopartes Peugeot - Chevrolet - Citro\u00ebn", "tags": "AUTOPARTES: SUSPENSION  -  REPUESTOS DE MOTOR  -  Y ACCESORIOS .", "url": "http://www.autoparteslola.com", "section": "repuestos-para-el-auto", "phone": "(0297) 446 - 0510", "location": " Comodoro Rivadavia - Chubut ", "address": " Av 13 De Diciembre 688  "}, {"name": "Autorepuestos del Este Sh", "tags": "REPUESTOS PARA EL AUTOMOTOR", "url": "", "section": "repuestos-para-el-auto", "phone": "(0291) 481 - 7550", "location": " Bah\u00eda Blanca - Buenos Aires ", "address": " Necochea 620  "}, {"name": "Hego Accesorios", "tags": "AUTOMOTORES  -  ACCESORIOS", "url": "", "section": "repuestos-para-el-auto", "phone": "(0261) 430 - 7877", "location": " Las Heras - Mendoza ", "address": " San Miguel 1880  "}, {"name": "La Chicana - Repuestos Automotores", "tags": "REPUESTOS PARA EL AUTOMOTOR  -  TODAS LAS MARCAS", "url": "http://www.repuestoslachicana.com", "section": "repuestos-para-el-auto", "phone": "(02352) 43 - 2231", "location": " Chacabuco - Buenos Aires ", "address": " J D De Sol\u00eds 189  "}, {"name": "Alineados el Gringo", "tags": "VENTA Y COLOCACI\u00d3N DE REPUESTOS PARA EL AUTOMOTOR", "url": "http://www.alineadoselgringo.com", "section": "repuestos-para-el-auto", "phone": "", "location": " Charata - Chaco ", "address": " Cnel Bogado 265  "}, {"name": "Repuestos las Heras - Todas las Marcas", "tags": "REPUESTOS EN GENERAL  -  INYECCI\u00d3N ELECTR\u00d3NICA", "url": "", "section": "repuestos-para-el-auto", "phone": "", "location": " Luj\u00e1n - Buenos Aires ", "address": " Las Heras 766  "}, {"name": "Citronorte", "tags": "REPUESTOS ORIGINALES  -  VOLKSWAGEN  -  RENAULT  -  CITRO\u00cbN", "url": "", "section": "repuestos-para-el-auto", "phone": "", "location": " Santa Fe - Santa Fe ", "address": " Av F Zuvir\u00eda 3905   "}, {"name": "Autopartes la Casa del Accesorio", "tags": "AUTOPARTES  -  GUARDABARROS  -  CAPOT  -  OPTICAS  -  PARAGOLPES  -  TODAS LAS MARCAS  -  CONSULTE NUESTRA WEB", "url": "http://www.lacasadel-accesorio.com", "section": "repuestos-para-el-auto", "phone": "", "location": " Paran\u00e1 - Entre Rios ", "address": " Av F Ram\u00edrez 2331  "}, {"name": "Accesorios y Autopartes Ignacio", "tags": "MULTIMARCA", "url": "", "section": "repuestos-para-el-auto", "phone": "(0291) 454 - 0104", "location": " Bah\u00eda Blanca - Buenos Aires ", "address": " Alte Brown 996  "}, {"name": "Autocrom de Rumar SRL - Repuestos y Accesorios del Automotor", "tags": "REPUESTOS MULTIMARCA", "url": "", "section": "repuestos-para-el-auto", "phone": "(03772) 42 - 4875", "location": " Paso de los Libres - Corrientes ", "address": " Maestro Melogno 420   "}, {"name": "Fucci Automotive", "tags": "REPARACION Y DIAGNOSTICO DE SISTEMAS DE  INYECCION ELECTRONICA  -  REPARACION DE AUTOS -  VENTA DE REPUESTOS Y MAS", "url": "", "section": "repuestos-para-el-auto", "phone": "(02281) 42 - 7702", "location": " Azul - Buenos Aires ", "address": " Av Piazza 1589  "}, {"name": "Fiat Total el 32", "tags": "REPUESTOS Y ACCESORIOS FIAT", "url": "http://www.repuestosel32.com", "section": "repuestos-para-el-auto", "phone": "", "location": " Gonz\u00e1lez Cat\u00e1n - Buenos Aires ", "address": " J M De Rosas 17002  "}, {"name": "Accesorios Toro'S", "tags": "ACCESORIOS 4X4  -  TUNNING COMPETICI\u00d3N", "url": "http://www.accesoriostoros.com", "section": "repuestos-para-el-auto", "phone": "", "location": " Olavarr\u00eda - Buenos Aires ", "address": " Av Pringles 4498  "}, {"name": "Repuestos Piscis", "tags": "TRABAJAMOS TODAS LAS MARCAS", "url": "", "section": "repuestos-para-el-auto", "phone": "", "location": " Del Viso - Buenos Aires ", "address": " Av Constituci\u00f3n 1193  "}, {"name": "Fiat Ritmo", "tags": "REPUESTOS Y ACCESORIOS ORIGINALES", "url": "", "section": "repuestos-para-el-auto", "phone": "(0343) 424 - 9003", "location": " Paran\u00e1 - Entre Rios ", "address": " Av F Ram\u00edrez 2571  "}, {"name": "Beresvil Repuestos", "tags": "MULTIMARCA  -  TODAS LAS TARJETAS", "url": "http://www.beresvilrepuestos.com", "section": "repuestos-para-el-auto", "phone": "(03496) 42 - 2337", "location": " Esperanza - Santa Fe ", "address": " Gob Crespo 2002  "}, {"name": "Repuestos y Lubricentros - la Ruta", "tags": "CAMBIO DE ACEITE Y FILTROS  -  TARJETAS DE CR\u00c9DITO", "url": "", "section": "repuestos-para-el-auto", "phone": "(0291) 481 - 2701", "location": " Bah\u00eda Blanca - Buenos Aires ", "address": " Rinc\u00f3n 3740  "}, {"name": "Repuestos Rulemax", "tags": "VENTA DE REPUESTOS AUTOMOTOR E INDUSTRIA  -  RULEMANES  -  HOMOCINETICAS  -  EXTREMOS  -  ROTULA  -  BOMBAS DE AGUA  -  CRUCETAS  -  Y MAS", "url": "https://www.facebook.com/Rulemanes-Rulemax-1604726656506109/?fref=ts", "section": "repuestos-para-el-auto", "phone": "(011) 4467 - 0055", "location": " Laferrere - Buenos Aires ", "address": " Av J M De Rosas 10849  "}, {"name": "Farmacia del Automovil", "tags": "REPUESTOS EN GENERAL  -  TODAS LAS MARCAS  -  ACEPTAMOS TARJETAS DE CR\u00c9DITO Y D\u00c9BITO", "url": "http://www.farmaciadelautomovil.com", "section": "repuestos-para-el-auto", "phone": "", "location": " Francisco Alvarez - Buenos Aires ", "address": " Tiradentes 54  "}, {"name": "Torneria y Repuestos Romerito", "tags": "ALINEACI\u00d3N Y BALANCEO  -  NEUM\u00c1TICOS  -  REPUESTOS DEL AUTOMOTOR", "url": "", "section": "repuestos-para-el-auto", "phone": "(03772) 42 - 1980", "location": " Paso de los Libres - Corrientes ", "address": " Belgrano 2268  "}, {"name": "Warnes Norte Repuestos", "tags": "VENTAS POR MAYOR Y MENOR  -  ENCENDIDO  -  BATER\u00cdAS  -  REPUESTOS MULTIMARCA  -  ACCESORIOS  -  OPTICAS  -  FRENOS", "url": "http://www.warnesnorte.com", "section": "repuestos-para-el-auto", "phone": "", "location": " Manuel B Gonnet - Buenos Aires ", "address": " Cno Gral Belgrano 3915  "}, {"name": "Ital Fiat", "tags": "REPUESTOS ORIGINALES Y ALTERNATIVOS", "url": "", "section": "repuestos-para-el-auto", "phone": "(0370) 443 - 7547", "location": " Formosa - Formosa ", "address": " E Senes 885  "}, {"name": "M & N Repuestos SRL - Electricidad y Encendido del Automotor", "tags": "REPUESTOS Y ACCESORIOS DE TODAS LAS MARCAS", "url": "", "section": "repuestos-para-el-auto", "phone": "", "location": " Santiago del Estero - Santiago del Estero ", "address": " Av Belgrano Norte 396  "}, {"name": "Repuestos y Accesorios Mag de Julio Amargos", "tags": "VENTAS POR MAYOR Y MENOR  -  ARRANQUES  -  ALTERNADORES  -  BATER\u00cdAS  -  BOBINADOS", "url": "http://www.repuestosmag.com", "section": "repuestos-para-el-auto", "phone": "", "location": " Banda del R\u00edo Sal\u00ed - Tucuman ", "address": " Av Sgto Cabral 78  "}, {"name": "Lupi Repuestos", "tags": "REPUESTOS FIAT  -  VOLKSWAGEN  -  CHEVROLET  -  PEUGEOT  -  ACCESORIOS", "url": "http://www.lupirepuestos.com", "section": "repuestos-para-el-auto", "phone": "(0351) 480 - 1854", "location": " C\u00f3rdoba - Cordoba ", "address": " Av Col\u00f3n 2950  "}, {"name": "Fiat Rochi", "tags": "LA CASA FIAT", "url": "", "section": "repuestos-para-el-auto", "phone": "", "location": " San Juan - San Juan ", "address": " Av G Rawson S 119  "}, {"name": "Chevro Parts", "tags": "L\u00cdNEA DE REPUESTOS Y ACCESORIOS DE CHEVROLET  -  TRABAJAMOS OTRAS MARCAS A PEDIDO  -  CONS\u00daLTENOS", "url": "", "section": "repuestos-para-el-auto", "phone": "(02920) 43 - 5038", "location": " Viedma - Rio Negro ", "address": " Dorrego 1036  "}, {"name": "Electro Ada", "tags": "REPUESTOS EL\u00c9CTRICOS DE AUTOMOTORES  -  TODAS LAS MARCAS", "url": "", "section": "repuestos-para-el-auto", "phone": "(0376) 445 - 2944", "location": " Posadas - Misiones ", "address": " Av Uruguay 5390  "}, {"name": "La Consola Accesorios", "tags": "30A\u00d1OS DE EXPERIENCIA EQUIPAMIENTO SIN COSTO ALGUNO , SERVICIO TECNICO , ACCESORIOS PARA EL AUTOMOTOR , AUTOPARTES Y AUDIO MARCAS NACIONALES IMPORTADAS", "url": "", "section": "repuestos-para-el-auto", "phone": "", "location": " Col\u00f3n - Entre Rios ", "address": " Av Pte Per\u00f3n 277  "}, {"name": "Casa Don Carlos de Salina Hnos", "tags": "REPUESTOS EN GENERAL  -  TODAS LAS MARCAS  -  TODOS LOS REPUESTOS  -  CONSULTE LA WEB", "url": "http://www.casa-doncarlos.com", "section": "repuestos-para-el-auto", "phone": "", "location": " Eugenio Bustos - Mendoza ", "address": " Granaderos 139  "}, {"name": "Otz Javier", "tags": "MEC\u00c1NICA Y REPUESTOS RENAULT  -  SERVICIOS", "url": "", "section": "repuestos-para-el-auto", "phone": "", "location": " Punta Alta - Buenos Aires ", "address": " Avellaneda 848  "}, {"name": "Repuestos Toselli", "tags": "ELECTRICIDAD DEL AUTOMOTOR Y AGRO  -  BATER\u00cdAS", "url": "", "section": "repuestos-para-el-auto", "phone": "(02954) 42 - 1779", "location": " Santa Rosa - La Pampa ", "address": " Av Ing Marzo 1762  "}, {"name": "Repuestos Toselli", "tags": "ELECTRICIDAD DEL AUTOMOTOR Y AGRO  -  BATER\u00cdAS", "url": "", "section": "repuestos-para-el-auto", "phone": "(02954) 42 - 1779", "location": " Santa Rosa - La Pampa ", "address": " Av Ing Marzo 1762  "}, {"name": "Ce-Me SA - Venta de Repuestos - Rodamientos Gral Pico - Concesionario Oficial Eaton", "tags": "CONCESIONARIO OFICIAL EATON   -  RODAMIENTOS  -  RETENES  -  FILTROS  -  TODO PARA EL AUTOMOTOR  -  REPUESTOS PARA CAMIONES", "url": "", "section": "repuestos-para-el-auto", "phone": "", "location": " General Pico - La Pampa ", "address": " Calle 32 735  "}, {"name": "Enrique Pieruccioni e Hijos", "tags": "REPUESTOS EN GENERAL", "url": "", "section": "repuestos-para-el-auto", "phone": "(03492) 42 - 9402", "location": " Rafaela - Santa Fe ", "address": " Ayacucho 326  "}, {"name": "Repuestos Martino", "tags": "FORD  -  CHEVROLET  -  SUZUKI  -  PIEZAS  -  ACCESORIOS  -  AUTOPARTES", "url": "", "section": "repuestos-para-el-auto", "phone": "", "location": " Chivilcoy - Buenos Aires ", "address": " Alvear 356  "}, {"name": "Rayfren - Frenos y Embragues", "tags": "REPUESTOS EN GENERAL", "url": "", "section": "repuestos-para-el-auto", "phone": "(0220) 476 - 3291", "location": " Las Heras - Buenos Aires ", "address": " Av Villamayor 680   "}, {"name": "Chapa Eme", "tags": "VENTA DE REPUESTOS DE CHAPA  -  VIDRIOS Y ACCESORIO PARA AUTOMOTOR", "url": "", "section": "repuestos-para-el-auto", "phone": "(0388) 425 - 3044", "location": " San Salvador de Jujuy - Jujuy ", "address": " J M Gorriti 44  "}, {"name": "Garcia Gayubo", "tags": "RODAMIENTOS Y EMBRAGUES - REPUESTOS - CRUCETAS - AMORTIGUADORES - BOMBAS DE AGUA", "url": "", "section": "repuestos-para-el-auto", "phone": "(03329) 42 - 3065", "location": " San Pedro - Buenos Aires ", "address": " Belgrano 2610  "}, {"name": "Rodocar - Servicios - Taller Mecanico", "tags": "REP JAPONESES  -  ESPECIALISTAS EN REPUESTOS Y REPARACI\u00d3N DE AUTOS IMPORTADOS", "url": "", "section": "repuestos-para-el-auto", "phone": "(0370) 442 - 3289", "location": " Formosa - Formosa ", "address": " J J Silva 556  "}, {"name": "Blois - Concesionario Oficial Peugeot", "tags": "VEH\u00cdCULOS 0 KM  -  USADOS  -  SELECCIONADOS  -  POSVENTA", "url": "http://www.blois.com.ar", "section": "repuestos-para-el-auto", "phone": "(02227) 42 - 1316", "location": " Lobos - Buenos Aires ", "address": " Ruta 205   "}, {"name": "Encendidos Rivadavia - Repuestos y Reparaciones de Electricidad del Automotor", "tags": "SALA DIAGN\u00d3STICO ELECTR\u00d3NICO  -  ANEXO LUBRICENTRO", "url": "", "section": "repuestos-para-el-auto", "phone": "", "location": " Corrientes - Corrientes ", "address": " Av Independencia 4796  "}, {"name": "Jime Competicion", "tags": "TODO PARA AUTOS Y TUNNING  -  L\u00c1MPARAS DE XEN\u00d3N Y LED", "url": "", "section": "repuestos-para-el-auto", "phone": "(0380) 442 - 9691", "location": " La Rioja - La Rioja ", "address": " Av L N Alem 522  "}, {"name": "Fiat Cocozza", "tags": "AGENTE OFICIAL  -  REPUESTOS ORIGINALES", "url": "http://www.fiatcocozza.com.ar", "section": "repuestos-para-el-auto", "phone": "(02346) 42 - 4299", "location": " Chivilcoy - Buenos Aires ", "address": " Av Ceballos 262  "}, {"name": "Repuestos Torres de Claudia Torres", "tags": "TODAS LAS MARCAS  -  TARJETAS DE CR\u00c9DITO Y D\u00c9BITO", "url": "", "section": "repuestos-para-el-auto", "phone": "(0291) 494 - 0237", "location": " Tornquist - Buenos Aires ", "address": " V Picado 280  "}, {"name": "Repuestos Ramandi", "tags": "INYECCI\u00d3N ELECTR\u00d3NICA  -  ENCENDIDO  -  INYECTORES  -  REGULADOR DE PRESI\u00d3N  -  BOMBAS DE NAFTA  -  BOBINAS DE IGNICI\u00d3N  -  BUJ\u00cdAS  -  BULBOS  -  SENSORES  -  ETC", "url": "https://www.facebook.com/RepuestosRamandi?fref=ts", "section": "repuestos-para-el-auto", "phone": "", "location": " Lomas de Zamora - Buenos Aires ", "address": " Cno Pte Per\u00f3n 186  "}, {"name": "Repuestos Andres y Gnc", "tags": "TODAS LAS MARCAS  -  GNC", "url": "", "section": "repuestos-para-el-auto", "phone": "", "location": " Azul - Buenos Aires ", "address": " Av Mitre 768  "}, {"name": "Mgh Repuestos", "tags": "CASA DE REPUESTOS  -  REPARACI\u00d3N DE FRENOS Y EMBRAGUES  -  TRABAJAMOS EN TODAS LAS MARCAS", "url": "", "section": "repuestos-para-el-auto", "phone": "", "location": " Tres Arroyos - Buenos Aires ", "address": " Dorrego 534  "}, {"name": "Fiat -  Peugeot Mendoza", "tags": "L\u00cdNEA COMPLETA FIAT  -  PEUGEOT", "url": "", "section": "repuestos-para-el-auto", "phone": "", "location": " Mendoza - Mendoza ", "address": " Av J V Zapata 392  "}, {"name": "Carben Repuestos", "tags": "REPUESTOS EN GENERAL  -  INYECCI\u00d3N ELECTR\u00d3NICA", "url": "", "section": "repuestos-para-el-auto", "phone": "(0264) 422 - 4323", "location": " San Juan - San Juan ", "address": " Av Rioja Sur 972  "}, {"name": "Melchiori Repuestos", "tags": "TODO PARA SU AUTOMOTOR  -  BATER\u00cdAS  -  REPUESTOS", "url": "http://www.melchiorirepuestos.com", "section": "repuestos-para-el-auto", "phone": "", "location": " Gualeguaych\u00fa - Entre Rios ", "address": " 25 De Mayo 1392  "}, {"name": "Dante Repuestos y Servicios", "tags": "VENTA DE REPUESTOS Y TREN DELANTERO", "url": "", "section": "repuestos-para-el-auto", "phone": "(03544) 42 - 4775", "location": " Villa Dolores - Cordoba ", "address": " Echeverr\u00eda 40  "}, {"name": "Accesorios Autocentro SRL", "tags": "VENTA DE REPUESTOS Y ACCESORIOS EN GENERAL  -  CERRAJER\u00cdA AUTOMOTOR", "url": "http://www.autocentrosrl.com.ar", "section": "repuestos-para-el-auto", "phone": "", "location": " Rosario - Santa Fe ", "address": " Corrientes 579  "}, {"name": "Repuestos Mate de Luna", "tags": "REPUESTO AUTOMOTOR", "url": "", "section": "repuestos-para-el-auto", "phone": "", "location": " San Miguel de Tucum\u00e1n - Tucuman ", "address": " 12 De Octubre 5  "}, {"name": "Litoral Fiat Repuestos", "tags": "L\u00cdNEA COMPLETA EN REPUESTOS Y ACCESORIOS PARA SU FIAT", "url": "http://www.litoralfiat.com.ar", "section": "repuestos-para-el-auto", "phone": "(0341) 430 - 2123", "location": " Rosario - Santa Fe ", "address": " Av E Per\u00f3n 4899  "}, {"name": "Salta - Repuestos Automotor", "tags": "JUEGO DE JUNTAS  -  TAPA DE CILINDRO  -  OPTICAS  -  BOMBA DE ACEITE  -  RETENES  -  BATER\u00cdAS VARIAS", "url": "http://www.facebook.com/saltarepuestos.saltarepuestos?fref=ts", "section": "repuestos-para-el-auto", "phone": "(0387) 431 - 8110", "location": " Salta - Salta ", "address": " 10 De Octubre 312  "}, {"name": "Stylish Truck 4X4", "tags": "ESTRIBOS  -  BARRAS  -  BUMPERS  -  MALACATES  -  ESTRIBOS EL\u00c9CTRICOS", "url": "http://www.fabricadeaccesorios.com.ar", "section": "repuestos-para-el-auto", "phone": "", "location": " Rosario - Santa Fe ", "address": " Bv 27 De Febrero 6818  "}, {"name": "Salta - Repuestos Automotor", "tags": "JUEGO DE JUNTAS  -  TAPA DE CILINDRO  -  OPTICAS  -  BOMBA DE ACEITE  -  RETENES  -  BATER\u00cdAS VARIAS", "url": "http://www.facebook.com/saltarepuestos.saltarepuestos?fref=ts", "section": "repuestos-para-el-auto", "phone": "(0387) 431 - 8110", "location": " Salta - Salta ", "address": " 10 De Octubre 312  "}, {"name": "Stylish Truck 4X4", "tags": "ESTRIBOS  -  BARRAS  -  BUMPERS  -  MALACATES  -  ESTRIBOS EL\u00c9CTRICOS", "url": "http://www.fabricadeaccesorios.com.ar", "section": "repuestos-para-el-auto", "phone": "", "location": " Rosario - Santa Fe ", "address": " Bv 27 De Febrero 6818  "}, {"name": "Casa Benzo", "tags": "MULTIMARCA", "url": "http://www.repuestoscasabenzo.com", "section": "repuestos-para-el-auto", "phone": "(03573) 42 - 4951", "location": " Villa del Rosario - Cordoba ", "address": " 25 De Mayo 427  "}, {"name": "Fiat Turin", "tags": "L\u00cdNEA COMPLETA DE ACCESORIOS Y REPUESTOS MARCA FIAT", "url": "http://www.fiatturin.com", "section": "repuestos-para-el-auto", "phone": "(0358) 462 - 4435", "location": " R\u00edo Cuarto - Cordoba ", "address": " Alvear 1684  "}, {"name": "Repuestos Don Felipe Electricidad", "tags": "EMPRESA CON AMPLIA TRAYECTORIA EN EL RUBRO BRINDANDOTE LO MEJOR EN TODO PARA  REPUESTOS DE ELECTRICIDAD  -  AUTOS  -  CAMIONES  -  ENV\u00cdOS A TODO EL PA\u00cdS", "url": "", "section": "repuestos-para-el-auto", "phone": "", "location": " Rosario - Santa Fe ", "address": " Av Pte Per\u00f3n 3220  "}, {"name": "Multiservice y Repuestos SRL - Mitsubishi Service", "tags": "SERVICE Y VENTA DE REPUESTOS", "url": "http://www.mitsubishimultiserviceyserviciossrl.com", "section": "repuestos-para-el-auto", "phone": "", "location": " Palermo - Ciudad de Buenos Aires ", "address": " Av C\u00f3rdoba 6063  "}, {"name": "Fiat Cacho", "tags": "VENTA DE REPUESTOS  -  FIAT  -  PEUGEOT  -  RENAULT", "url": "http://www.facebook.com/fiatcacho", "section": "repuestos-para-el-auto", "phone": "(011) 4713 - 3753", "location": " San Andr\u00e9s - Buenos Aires ", "address": " J M Campos 1418  "}, {"name": "Peon Repuestos SRL", "tags": "REPUESTOS - SUSPENSION - FRENOS - SEMIEJES - BOMBAS DE FRENOS", "url": "http://www.peonrepuestos.com.ar", "section": "repuestos-para-el-auto", "phone": "", "location": " C\u00f3rdoba - Cordoba ", "address": " San Jer\u00f3nimo 2320  "}, {"name": "Perfecto Repuestos", "tags": "VENTA DE REPUESTOS EN OR\u00c1N", "url": "", "section": "repuestos-para-el-auto", "phone": "", "location": " San Ram\u00f3n de la Nueva Or\u00e1n - Salta ", "address": " C Pellegrini 161  "}, {"name": "El Platino Repuestos - Repuestos para el Automotor", "tags": "RULEMANES  -  RETENES  -  EL\u00c1STICOS  -  FILTROS  -  BATER\u00cdAS", "url": "http://www.elplatino.com", "section": "repuestos-para-el-auto", "phone": "(03873) 42 - 1207", "location": " Tartagal - Salta ", "address": " J B Alberdi 676  "}, {"name": "Repuestos Rodriguez", "tags": "REPUESTOS DE TRANSMISI\u00d3N DE TODAS LAS MARCAS", "url": "", "section": "repuestos-para-el-auto", "phone": "", "location": " Salta - Salta ", "address": " Av San Mart\u00edn 1806  "}, {"name": "Autopartes los Amigos", "tags": "VENTA DE REPUESTOS DEL AUTOMOTOR  -  MULTIMARCA  -  REPUESTOS NUEVOS Y USADOS  -  NACIONALES E IMPORTADOS  -  ENV\u00cdOS", "url": "", "section": "repuestos-para-el-auto", "phone": "", "location": " Villa Insuperable - Buenos Aires ", "address": " Av Int Crovara 434  "}, {"name": "Rodamor Repuestos y Rodamientos en General", "tags": "RULEMANES INDUSTRIALES  -  AUTOMOTORES  -  TREN DELANTERO  -  RODAMIENTO", "url": "", "section": "repuestos-para-el-auto", "phone": "", "location": " Moreno - Buenos Aires ", "address": " Av Libertador 559  "}, {"name": "Juntas San Juan", "tags": "F\u00c1BRICA DE JUNTAS ESPECIALES  -  JUNTAS  -  RETENES  -  FILTROS EN GENERAL", "url": "", "section": "repuestos-para-el-auto", "phone": "", "location": " San Juan - San Juan ", "address": " H Yrigoyen 1363  "}, {"name": "Autopartes Zagame", "tags": "TODAS LAS MARCAS  -  ACCESORIOS Y AUTOPARTES", "url": "http://www.facebook.com/autoparteszagamehermanos", "section": "repuestos-para-el-auto", "phone": "(02262) 42 - 1144", "location": " Necochea - Buenos Aires ", "address": " Av 59 3419 \u00a0PA "}, {"name": "Pezoa Repuestos", "tags": "L\u00cdNEA COMPLETA DE REPUESTOS AUTOMOTORES  -  MULTIMARCAS  -  NACIONALES E IMPORTADOS", "url": "", "section": "repuestos-para-el-auto", "phone": "(0380) 443 - 5709", "location": " La Rioja - La Rioja ", "address": " 1 De Mayo 510  "}, {"name": "Taller Otto", "tags": "INYECCI\u00d3N  -  CARBURACI\u00d3N  -  ACCESORIOS  -  ARRANQUES  -  ALTERNADORES", "url": "", "section": "repuestos-para-el-auto", "phone": "(0370) 445 - 2001", "location": " Formosa - Formosa ", "address": " Av Dr Gutnisky 3272  "}, {"name": "Fiat - Repuestos Uno", "tags": "REPUESTOS Y ACCESORIOS ORIGINALES FIAT", "url": "", "section": "repuestos-para-el-auto", "phone": "(0343) 423 - 1517", "location": " Paran\u00e1 - Entre Rios ", "address": " Av F Ram\u00edrez 2950  "}, {"name": "Repuestos Fiat Mf", "tags": "L\u00cdNEA COMPLETA EN REPUESTOS Y ACCESORIOS MARCA FIAT", "url": "", "section": "repuestos-para-el-auto", "phone": "", "location": " San Lorenzo - Santa Fe ", "address": " Av San Mart\u00edn 2439  "}, {"name": "Rider Repuestos", "tags": "TODAS LAS MARCAS  -  REPUESTOS EN GENERAL", "url": "http://www.riderrepuestos.com", "section": "repuestos-para-el-auto", "phone": "(0261) 427 - 2239", "location": " Godoy Cruz - Mendoza ", "address": " Pellegrini 1233   "}, {"name": "Car Accesorios", "tags": "LA M\u00c1S ALTA CALIDAD EN ACCESORIOS  -  TODO PARA EL AUTOMOTOR  -  TODAS LAS MARCAS  -  NACIONALES E IMPORTADAS", "url": "", "section": "repuestos-para-el-auto", "phone": "", "location": " Tandil - Buenos Aires ", "address": " Av Marconi 1549  "}, {"name": "Fiat Torcuato de Alberto Piro", "tags": "L\u00cdNEA COMPLETA  -  NACIONALES E IMPORTADOS  -  REPUESTOS ORIGINALES", "url": "", "section": "repuestos-para-el-auto", "phone": "(011) 4748 - 4226", "location": " Don Torcuato - Buenos Aires ", "address": " Av M T De Alvear 1497  "}, {"name": "Antonio Repuestos", "tags": "REPUESTOS Y NEUM\u00c1TICOS  -  NEUM\u00c1TICOS YOKOHAMA", "url": "", "section": "repuestos-para-el-auto", "phone": "", "location": " R\u00edo Grande - Tierra del Fuego ", "address": " Av Belgrano 1283  "}, {"name": "Cotto Repuestos", "tags": "REPUESTO AUTOMOTOR  -  L\u00cdNEAS GENERALES  -  TODAS LAS MARCAS", "url": "", "section": "repuestos-para-el-auto", "phone": "", "location": " Paran\u00e1 - Entre Rios ", "address": " Cura Alvarez 994   "}, {"name": "Repuestos Huber", "tags": "BOLILLEROS  -  RETENES  -  CA\u00d1OS DE ESCAPE  -  CORREAS  -  RODAMIENTOS  -  TODO PARA EL AUTOMOTOR", "url": "", "section": "repuestos-para-el-auto", "phone": "(02928) 42 - 0136", "location": " Pedro Luro - Buenos Aires ", "address": " Calle 24 336  "}, {"name": "Autopartes del Valle", "tags": "CARROCER\u00cdAS  -  CERRAJER\u00cdAS  -  ACCESORIOS PARA EL AUTOMOTOR", "url": "", "section": "repuestos-para-el-auto", "phone": "(02284) 42 - 2203", "location": " Olavarr\u00eda - Buenos Aires ", "address": " Av Del Valle 2570  "}, {"name": "Electromecanica Vicente", "tags": "ELECTRICIDAD DEL AUTOMOTOR  -  VENTA DE ACUMULADORES  -  REPARACI\u00d3N DE ARRANQUES", "url": "http://www.electromecanicavicente.com", "section": "repuestos-para-el-auto", "phone": "", "location": " Granadero Baigorria - Santa Fe ", "address": " Av De La Torre 303  "}, {"name": "Ferreyra SRL - Repuestos y Servicio Automotor", "tags": "AUTOMOTORES  -  REPUESTOS", "url": "", "section": "repuestos-para-el-auto", "phone": "(03455) 42 - 4559", "location": " Villaguay - Entre Rios ", "address": " Espa\u00f1a 1364  "}, {"name": "Repuestos F L", "tags": "RENAULT  -  VW  -  CITRO\u00cbN", "url": "", "section": "repuestos-para-el-auto", "phone": "", "location": " Olavarr\u00eda - Buenos Aires ", "address": " Av Pringles 2897  "}, {"name": "Renault Total", "tags": "REPUESTOS ORIGINALES Y ALTERNATIVOS", "url": "http://www.renaulttotal.com", "section": "repuestos-para-el-auto", "phone": "", "location": " Necochea - Buenos Aires ", "address": " Calle 46 2599  "}, {"name": "Walter Repuestos", "tags": "TODO TIPO DE REPUESTOS PARA AUTOS Y CAMIONES", "url": "http://www.walterrepuestos.com", "section": "repuestos-para-el-auto", "phone": "(0260) 447 - 0286", "location": " Malarg\u00fce - Mendoza ", "address": " Av Gral Ortega 1057  "}, {"name": "Balestra Repuestos SRL", "tags": "AUTOS  -  TRACTORES  -  M\u00c1QUINAS AGR\u00cdCOLAS  -  AGENTES MASSEY FERGUSON", "url": "", "section": "repuestos-para-el-auto", "phone": "(02622) 48 - 8482", "location": " Tupungato - Mendoza ", "address": " General Urquiza 71  "}, {"name": "Volontin Alberto Repuestos", "tags": "REPUESTOS PARA AUTOMOTORES  -  TRACTORES  -  M\u00c1QUINAS AGR\u00cdCOLAS", "url": "", "section": "repuestos-para-el-auto", "phone": "", "location": " Ayacucho - Buenos Aires ", "address": " Av Dindart 1278  "}, {"name": "Repuestos Serrano", "tags": "REPUESTOS PARA AUTOS Y CAMIONES", "url": "", "section": "repuestos-para-el-auto", "phone": "", "location": " Serrano - Cordoba ", "address": " Espa\u00f1a 250  "}, {"name": "Gar Autopartes", "tags": "DISTRIBUCI\u00d3N DE AUTOPARTES  -  TODAS LAS MARCAS", "url": "", "section": "repuestos-para-el-auto", "phone": "", "location": " San Francisco - Cordoba ", "address": " Bv Roca 2263  "}, {"name": "Repuestos Martin Sport", "tags": "REPUESTOS AUTOMOTOR  -  SUSPENSI\u00d3N  -  ENCENDIDO  -  PARTES DE MOTOR  -  ACCESORIOS  -  FRENOS  -  EMBRAGUES", "url": "http://www.repuestosmartinsport.com", "section": "repuestos-para-el-auto", "phone": "(011) 4452 - 5115", "location": " Hurlingham - Buenos Aires ", "address": " Marqu\u00e9s De Avil\u00e9s 2945  "}, {"name": "Repuestos Lc - Nacionales e Importados", "tags": "L\u00cdNEA DE RENAULT Y FIAT", "url": "", "section": "repuestos-para-el-auto", "phone": "(0341) 456 - 4063", "location": " Rosario - Santa Fe ", "address": " Av E Per\u00f3n 7391  "}, {"name": "Rucar Accesorios para el Automotor", "tags": "ACCESORIOS  -  REPUESTOS RENAULT - VOLKSWAGEN  -  FORD - CHEVROLET", "url": "http://www.rucar-automotor.com", "section": "repuestos-para-el-auto", "phone": "(0343) 434 - 0323", "location": " Paran\u00e1 - Entre Rios ", "address": " Av Almafuerte 502   "}, {"name": "Encendido Mercedes", "tags": "REPUESTOS PARA EL AUTOMOTOR EN GENERAL", "url": "", "section": "repuestos-para-el-auto", "phone": "(02657) 42 - 3621", "location": " Villa Mercedes - San Luis ", "address": " Av Pte Per\u00f3n 341   "}, {"name": "Su-Rep Repuestos", "tags": "TODO PARA EL AUTOMOTOR  -  LAS MEJORES MARCAS", "url": "", "section": "repuestos-para-el-auto", "phone": "", "location": " R\u00edo Gallegos - Santa Cruz ", "address": " B Rivadavia 576  "}, {"name": "Comercial Ignagom - la Casa del Gomero", "tags": "DESARMADORAS - COMPRESORES - ELEVADORES DE AUTOS - COMPRESORAS - BALANCEADORAS - CRIQUES - C\u00c1MARAS DE AUTO - C\u00c1MARAS DE CAMIONES - HERRAMIENTAS NEUM\u00c1TICAS - REPUESTOS", "url": "http://www.comercialignagom.com", "section": "repuestos-para-el-auto", "phone": "(0299) 477 - 3102", "location": " Cipolletti - Rio Negro ", "address": " Don Bosco 714  "}, {"name": "Ruta 66", "tags": "AUTOPARTES Y ACCESORIOS  -  TODAS LAS MARCAS", "url": "", "section": "repuestos-para-el-auto", "phone": "", "location": " Concordia - Entre Rios ", "address": " H Yrigoyen 1183  "}, {"name": "Autopartes Santa Barbara", "tags": "VENTA DE AUTOPARTES PARA EL AUTOMOTOR NUEVOS Y USADAS  -  COMPRAMOS AUTOS DADOS DE BAJA.", "url": "http://www.stabarbarautopartes.com", "section": "repuestos-para-el-auto", "phone": "(0264) 421 - 5219", "location": " San Juan - San Juan ", "address": " Tucum\u00e1n Norte 1415  "}, {"name": "Accesorios Posadas SRL", "tags": "REPUESTOS Y ACCESORIOS ORIGINALES Y DEPORTIVOS  -  SUCURSAL: VILLA CABELLO EN AV L\u00d3PEZ Y PLANES 7207", "url": "http://www.accesoriosposadas.com", "section": "repuestos-para-el-auto", "phone": "", "location": " Posadas - Misiones ", "address": " Lavalle 2843  "}, {"name": "Tucuman Accesorios", "tags": "PARA EL AUTOMOTOR EN GENERAL  -  MULTIMARCAS  -  ALARMAS", "url": "", "section": "repuestos-para-el-auto", "phone": "(0381) 424 - 9391", "location": " San Miguel de Tucum\u00e1n - Tucuman ", "address": " Libertad 863  "}, {"name": "San Cayetano Repuestos", "tags": "TODAS LAS MARCAS  -  ACCESORIOS", "url": "", "section": "repuestos-para-el-auto", "phone": "(02657) 42 - 0603", "location": " Villa Mercedes - San Luis ", "address": " 25 De Mayo 582  "}, {"name": "Noni Repuestos", "tags": "REP EN GRAL - CARBURADORES - REPARACI\u00d3N Y ADAPTADORES - DISTRIB ELECTR\u00d3NICOS - JUNTAS - L\u00cdNEA LIVIANA Y PESADA -  FILTROS - TREN DELANT - CABLES DE COMPETIC", "url": "", "section": "repuestos-para-el-auto", "phone": "(0280) 442 - 9002", "location": " Trelew - Chubut ", "address": " Rivadavia 66  "}, {"name": "Distribuidora Ok - Repuestos para Motor", "tags": "REPUESTOS PARA MOTOR - REPUESTOS - MOTORES - REPUESTOS PARA MOTORES", "url": "", "section": "repuestos-para-el-auto", "phone": "", "location": " Rosario - Santa Fe ", "address": " Bv Avellaneda 1970  "}, {"name": "Giralt Repuestos", "tags": "REPUESTOS TREN DELANTERO  -  RODAMIENTOS  -  TRANSMISI\u00d3N  -  SUSPENSI\u00d3N  -  SEMIEJES  -  CAJA DE DIRECCI\u00d3N  -  BOMBAS DE AGUA", "url": "", "section": "repuestos-para-el-auto", "phone": "(0351) 457 - 5488", "location": " C\u00f3rdoba - Cordoba ", "address": " Av Rev De Mayo 1619  "}, {"name": "Repuestos Rucel", "tags": "REPUESTO MULTIMARCA  -  REPUESTOS EN GENERAL", "url": "http://www.repuestosrucel.com", "section": "repuestos-para-el-auto", "phone": "(0341) 465 - 0292", "location": " Rosario - Santa Fe ", "address": " Av O Lagos 5717  "}, {"name": "Ricardo y Luis Sciarresi", "tags": "VENTA DE REPUESTOS Y AUTOPARTES  -  TALLER INTEGRAL  -  LIVIANOS  -  PESADOS  -  AGR\u00cdCOLAS  -  INYECCI\u00d3N ELECTR\u00d3NICA DI\u00c9SEL  -  ELECTRICIDAD", "url": "", "section": "repuestos-para-el-auto", "phone": "", "location": " Empalme Villa Constituci\u00f3n - Santa Fe ", "address": " Av Buenos Aires 162  "}, {"name": "Birocco - Repuestos y Accesorios en General", "tags": "PARA CAMIONES Y AUTOMOTORES", "url": "", "section": "repuestos-para-el-auto", "phone": "(03463) 42 - 0272", "location": " Canals - Cordoba ", "address": " Maip\u00fa 282  "}, {"name": "Manolo Repuestos", "tags": "REPUESTOS TODAS LAS MARCAS", "url": "", "section": "repuestos-para-el-auto", "phone": "(011) 4756 - 8356", "location": " Munro - Buenos Aires ", "address": " E Sivori 5009  "}, {"name": "Repuestos el Cholo - Citro\u00ebn", "tags": "TODOS LOS REPUESTOS DE CITRO\u00cbN  -  NACIONALES E IMPORTADOS  -  CONSULTE", "url": "http://www.elcholorepuestoscitroen.com", "section": "repuestos-para-el-auto", "phone": "", "location": " Olavarr\u00eda - Buenos Aires ", "address": " Pelegrino 1058  "}, {"name": "Gustavo Repuestos", "tags": "VENTA DE REPUESTOS PARA EL AUTOMOTOR", "url": "http://www.gustavorepuestos.com", "section": "repuestos-para-el-auto", "phone": "(02934) 42 - 1779", "location": " San Antonio Oeste - Rio Negro ", "address": " Av Belgrano 1631  "}, {"name": "Centro Repuestos de Mario Zingoni", "tags": "REPUESTOS PARA EL AUTOMOTOR Y LUBRICANTES", "url": "", "section": "repuestos-para-el-auto", "phone": "(02942) 43 - 2445", "location": " Zapala - Neuquen ", "address": " Choc\u00f3n y Espa\u00f1a   "}, {"name": "Ochoteco Repuestos - Todo para Su Auto", "tags": "L\u00cdNEA COMPLETA DE CORREAS  -  FILTROS  -  RODAMIENTOS  -  ACEPTAMOS TODAS LAS TARJETAS DE CR\u00c9DITO", "url": "http://www.ochotecorepuestos.com", "section": "repuestos-para-el-auto", "phone": "(03435) 42 - 1152", "location": " Nogoy\u00e1 - Entre Rios ", "address": " San Lorenzo 480  "}, {"name": "El Emporio de las Juntas SRL", "tags": "REPUESTOS  -  RECTIFICACI\u00d3N DE MOTORES", "url": "http://www.elemporiodelasjuntas.com", "section": "repuestos-para-el-auto", "phone": "(0388) 423 - 4552", "location": " San Salvador de Jujuy - Jujuy ", "address": " J M Gorriti 463  "}, {"name": "Mundo Fiat", "tags": "REPUESTOS  -  TODAS LAS L\u00cdNEAS Y MODELOS", "url": "", "section": "repuestos-para-el-auto", "phone": "(0381) 436 - 4544", "location": " San Miguel de Tucum\u00e1n - Tucuman ", "address": " Av Nestor Kirchner 1626   "}, {"name": "Repuestos Guernica de Amato", "tags": "TODAS LAS MARCAS  -  FRENOS  -  EMBRAGUES  -  REPUESTOS EN GENERAL", "url": "", "section": "repuestos-para-el-auto", "phone": "", "location": " Guernica - Buenos Aires ", "address": " Ruta 210 24042  "}, {"name": "Casa Mega", "tags": "REPUESTOS PARA EL AUTOMOTOR", "url": "", "section": "repuestos-para-el-auto", "phone": "(011) 4753 - 8619", "location": " San Mart\u00edn - Buenos Aires ", "address": " Pte J D Per\u00f3n 3441   "}, {"name": "Recambios Norte", "tags": "ATENDIDO POR ESPECIALISTAS  -  VENTAS POR MAYOR Y MENOR", "url": "http://www.blidey.com.ar", "section": "repuestos-para-el-auto", "phone": "(0376) 445 - 7914", "location": " Posadas - Misiones ", "address": " Av Uruguay 4971  "}, {"name": "Repuestos Gambazza Hnos", "tags": "VENTA DE REPUESTOS MULTIMARCAS  -  NUEVOS NACIONALES E IMPORTADOS", "url": "http://www.repuestosgambazza.com", "section": "repuestos-para-el-auto", "phone": "(02942) 42 - 2413", "location": " Zapala - Neuquen ", "address": " Avellaneda 298  "}, {"name": "Optimus Lubricentro", "tags": "BOMBAS DE AGUA  -  AMORTIGUADORES  -  BUJES  -  LIMPIA PARABRISAS  -  FILTROS  -  GRASA  -  CABLES  -  L\u00c1MPARAS", "url": "", "section": "repuestos-para-el-auto", "phone": "(0280) 442 - 1503", "location": " Trelew - Chubut ", "address": " Av H Yrigoyen 1989  "}, {"name": "Toyok - Soluciones Automotrices", "tags": "REPUESTOS  -  REPARACIONES  -  AUTOS IMPORTADOS Y DE ALTA GAMA", "url": "", "section": "repuestos-para-el-auto", "phone": "(03755) 42 - 0680", "location": " Ober\u00e1 - Misiones ", "address": " San Pedro 2164  "}, {"name": "Rios Fiat", "tags": "REPUESTOS Y ACCESORIOS FIAT ORIGINALES", "url": "", "section": "repuestos-para-el-auto", "phone": "(0358) 462 - 1648", "location": " R\u00edo Cuarto - Cordoba ", "address": " Av A Sabattini 1880   "}, {"name": "Fiat Modena", "tags": "L\u00cdNEA COMPLETA FIAT", "url": "", "section": "repuestos-para-el-auto", "phone": "(011) 4836 - 2299", "location": " Mart\u00ednez - Buenos Aires ", "address": " Fleming 1811  "}, {"name": "Repuestos Pehuen", "tags": "REPUESTOS EN GENERAL PARA EL AUTOMOTOR  -  ALINEACI\u00d3N  -  BALANCEO Y TREN DELANTERO", "url": "http://www.repuestospehuen.com", "section": "repuestos-para-el-auto", "phone": "", "location": " Loncopu\u00e9 - Neuquen ", "address": " E Salvador   "}, {"name": "Taboga Repuestos de Aldo Jose Taboga", "tags": "REPUESTOS RENAULT Y VOLKSWAGEN", "url": "", "section": "repuestos-para-el-auto", "phone": "", "location": " San Francisco - Cordoba ", "address": " J B Iturraspe 1292  "}, {"name": "Bonamici - Autopartes y Servicios", "tags": "REPUESTOS  -  SERVICIOS  -  LUBRICANTES  -  GOMER\u00cdA  -  BATER\u00cdAS", "url": "http://www.bonamiciautopartes.com.ar", "section": "repuestos-para-el-auto", "phone": "", "location": " Alta Gracia - Cordoba ", "address": " Av Libertador 701  "}, {"name": "3 Sols - Repuestos del Automotor", "tags": "VENTA DE REPUESTOS PARA EL AUTOMOTOR  -  TODAS LAS MARCAS", "url": "http://www.3sols.com.ar", "section": "repuestos-para-el-auto", "phone": "", "location": " Tablada - Buenos Aires ", "address": " Av Int Crovara 4101  "}, {"name": "Chevrorec", "tags": "L\u00cdNEA GENERAL DE CHEVROLET Y VOLKSWAGEN POR PEDIDO  -  REPUESTOS NACIONALES E IMPORTADOS  -  ORIGINALES Y ALTERNATIVOS", "url": "https://listado.mercadolibre.com.ar/_CustId_86980604", "section": "repuestos-para-el-auto", "phone": "(011) 4456 - 1049", "location": " Los Polvorines - Buenos Aires ", "address": " Ruta 197 3122  "}, {"name": "Costanzi Distribuciones", "tags": "REPUESTOS DE MOTORES INTERIORES", "url": "", "section": "repuestos-para-el-auto", "phone": "(0299) 442 - 9209", "location": " Neuqu\u00e9n - Neuquen ", "address": " Int P Linares 306  "}, {"name": "Auto Reser - Repuestos", "tags": "VENTA DE REPUESTOS FORD Y VOLKSWAGEN", "url": "", "section": "repuestos-para-el-auto", "phone": "(03442) 43 - 2845", "location": " Concepci\u00f3n del Uruguay - Entre Rios ", "address": " Galarza 1623  "}, {"name": "Encendido Lanus", "tags": "AUTOMOTORES  -  ELECTRICIDAD  -  REPUESTOS  -  AIRE ACONDICIONADO", "url": "http://www.encendidolanus.com", "section": "repuestos-para-el-auto", "phone": "(011) 6079 - 5976", "location": " Lan\u00fas - Buenos Aires ", "address": " Av San Mart\u00edn 2182  "}, {"name": "El Garage - Repuesto Multimarca", "tags": "SUSPENSI\u00d3N  -  FILTRO  -  EMBRAGUE", "url": "", "section": "repuestos-para-el-auto", "phone": "(03878) 42 - 6460", "location": " San Ram\u00f3n de la Nueva Or\u00e1n - Salta ", "address": " O'Higgins 51  "}, {"name": "Todo Fiat", "tags": "REPUESTOS  -  AUTOPARTES  -  ACCESORIOS", "url": "", "section": "repuestos-para-el-auto", "phone": "(02266) 43 - 1474", "location": " Balcarce - Buenos Aires ", "address": " Bv J Kelly 930  "}, {"name": "Dana Warnes", "tags": "EMBRAGUES  -  FRENOS  -  KIT DE DISTRIBUCI\u00d3N", "url": "", "section": "repuestos-para-el-auto", "phone": "(011) 4857 - 1558", "location": " Villa Crespo - Ciudad de Buenos Aires ", "address": " M Bernasconi 2266  "}, {"name": "Mario Repuestos de Mario Chaya", "tags": "REPUESTOS  -  BATER\u00cdAS  -  MULTIMARCAS", "url": "", "section": "repuestos-para-el-auto", "phone": "(0381) 424 - 7923", "location": " San Miguel de Tucum\u00e1n - Tucuman ", "address": " Av L N Alem 388  "}, {"name": "Gym - Repuestos de Autos y Motos", "tags": "LUBRICANTES  -  REPUESTOS DE AUTOS Y MOTOS  -  CUBIERTAS DE MOTOS  -  REPUESTOS DE ELECTRICIDAD", "url": "", "section": "repuestos-para-el-auto", "phone": "(03878) 47 - 1485", "location": " Embarcaci\u00f3n - Salta ", "address": " Av J D Per\u00f3n 303  "}, {"name": "Cantieri Gustavo Repuestos", "tags": "VENTA DE REPUESTOS  -  AFINACI\u00d3N DE AUTOM\u00d3VILES  -  INYECCI\u00d3N DE COMBUSTIBLE  -  CARBURACI\u00d3N Y ENCENDIDO", "url": "", "section": "repuestos-para-el-auto", "phone": "", "location": " Pergamino - Buenos Aires ", "address": " Jujuy 838  "}, {"name": "Todo Repuestos", "tags": "ENV\u00cdOS A DOMICILIO  -  REPUESTOS ORIGINALES Y ALTERNATIVOS  -  ACCESORIOS", "url": "", "section": "repuestos-para-el-auto", "phone": "(02923) 49 - 8770", "location": " Pu\u00e1n - Buenos Aires ", "address": " Humberto Primo   "}, {"name": "Carlitos Repuestos Juniors SRL", "tags": "REPUESTOS ORIGINALES NACIONALES E IMPORTADOS", "url": "http://www.carlitosrepuestos.com", "section": "repuestos-para-el-auto", "phone": "(0388) 423 - 4207", "location": " San Salvador de Jujuy - Jujuy ", "address": " J M Gorriti 390  "}, {"name": "Hp Cristales", "tags": "ENGANCHES PARA TRAILERS", "url": "", "section": "repuestos-para-el-auto", "phone": "", "location": " Remedios de Escalada - Buenos Aires ", "address": " Villa De Luj\u00e1n 2136  "}, {"name": "Integral Repuestos Fiat", "tags": "REPUESTOS EN GENERAL", "url": "", "section": "repuestos-para-el-auto", "phone": "", "location": " Corrientes - Corrientes ", "address": " Av Chacabuco 1477  "}, {"name": "Lagar Frontini y Cia SA", "tags": "REPUESTOS PARA TODAS LAS MARCAS", "url": "", "section": "repuestos-para-el-auto", "phone": "(0236) 442 - 4013", "location": " Jun\u00edn - Buenos Aires ", "address": " B De Miguel 220  "}, {"name": "Casa Sarandi", "tags": "REPUESTOS Y ACCESORIOS", "url": "http://www.casasarandirepuestos.com", "section": "repuestos-para-el-auto", "phone": "(02342) 42 - 4090", "location": " Bragado - Buenos Aires ", "address": " Pellegrini 2080  "}, {"name": "Repuestos Pablito", "tags": "REPUESTOS", "url": "", "section": "repuestos-para-el-auto", "phone": "(03772) 42 - 1050", "location": " Paso de los Libres - Corrientes ", "address": " Pago Largo 1370  "}, {"name": "J D Repuestos - Electricidad Automotor", "tags": "REPUESTOS  -  BOBINADOS", "url": "http://www.jd-repuestos.com.ar", "section": "repuestos-para-el-auto", "phone": "(0291) 455 - 3951", "location": " Bah\u00eda Blanca - Buenos Aires ", "address": " San Mart\u00edn 782  "}, {"name": "La Casa del Afinador", "tags": "INYECCI\u00d3N  -  COMBINACI\u00d3N  -  ENCENDIDO", "url": "", "section": "repuestos-para-el-auto", "phone": "(0342) 453 - 6112", "location": " Santa Fe - Santa Fe ", "address": " Av Fdo Zuvir\u00eda 4676   "}, {"name": "Lubricentro Furlani", "tags": "REPUESTOS Y ACCESORIOS PARA EL AUTOMOTOR  -  LUBRICENTRO", "url": "", "section": "repuestos-para-el-auto", "phone": "", "location": " Cruz de Piedra - Mendoza ", "address": " Ozamis 2950  "}, {"name": "Lubricentro Furlani", "tags": "REPUESTOS Y ACCESORIOS PARA EL AUTOMOTOR  -  LUBRICENTRO", "url": "", "section": "repuestos-para-el-auto", "phone": "", "location": " Cruz de Piedra - Mendoza ", "address": " Ozamis 2950  "}, {"name": "M & C Repuestos", "tags": "LA SOLUCI\u00d3N PARA SU VOLKSWAGEN Y CHEVROLET", "url": "", "section": "repuestos-para-el-auto", "phone": "(0385) 422 - 6436", "location": " Santiago del Estero - Santiago del Estero ", "address": " La Plata 965  "}, {"name": "Casa Pissarro - Repuestos", "tags": "REPUESTOS EN GENERAL  -  ESPECIALIDAD EN BOMBAS DE AGUA", "url": "", "section": "repuestos-para-el-auto", "phone": "", "location": " Necochea - Buenos Aires ", "address": " Calle 70 2756  "}, {"name": "Auto Rumbo - Agente Oficial Renault - Nissan", "tags": "REPUESTOS", "url": "http://www.autorumbo.com.ar", "section": "repuestos-para-el-auto", "phone": "(0260) 443 - 0244", "location": " San Rafael - Mendoza ", "address": " Av B Mitre 1540  "}, {"name": "Citro-Peru", "tags": "REPUESTOS Y ACCESORIOS CITRO\u00cbN  -  RENAULT", "url": "", "section": "repuestos-para-el-auto", "phone": "(0291) 454 - 6171", "location": " Bah\u00eda Blanca - Buenos Aires ", "address": " Don Bosco 1731  "}, {"name": "Nueva Casa Peca", "tags": "ESPECIALIZADOS EN SUSPENSIONES DEL AUTOMOTOR E HIDROIMPRESI\u00d3N", "url": "", "section": "repuestos-para-el-auto", "phone": "(03329) 48 - 0215", "location": " Baradero - Buenos Aires ", "address": " Av San Mart\u00edn 1985  "}, {"name": "Repuestos el Turco", "tags": "AUTOS  -  CAMIONES  -  TRACTORES  -  HIDR\u00c1ULICA  -  TREN DELANTERO  -  BULONES", "url": "", "section": "repuestos-para-el-auto", "phone": "", "location": " Bandera - Santiago del Estero ", "address": " Garibaldi   "}, {"name": "Repuestos Payma", "tags": "ELECTRICIDAD  -  ENCENDIDO  -  ELECTR\u00d3NICA", "url": "", "section": "repuestos-para-el-auto", "phone": "", "location": " C\u00f3rdoba - Cordoba ", "address": " Av Las Malvinas 2067  "}, {"name": "Santa Rosa Repuestos", "tags": "REPUESTOS DE MOTOR  -  TREN DELANTERO  -  ACCESORIOS KIT DE DISTRIBUCI\u00d3N  -  ACEITES Y FILTROS  -  CORREAS Y JUNTAS", "url": "http://www.santarosarepuestos.com", "section": "repuestos-para-el-auto", "phone": "(03546) 42 - 1729", "location": " Santa Rosa de Calamuchita - Cordoba ", "address": " H Yrigoyen 448  "}, {"name": "Caresi Hnos - Repuestos de Automotor", "tags": "REPUESTOS EN GENERAL  -  PEDIDOS  -  LUBRICANTES Y ACCESORIOS", "url": "", "section": "repuestos-para-el-auto", "phone": "(03844) 42 - 1718", "location": " A\u00f1atuya - Santiago del Estero ", "address": " Av 25 De Mayo Norte S/N   "}, {"name": "Fiat Turin Mdp - Repuestos para Autos", "tags": "REPUESTOS Y ACCESORIOS ORIGINALES  -  LUBRICANTES TODA LA L\u00cdNEA  -  ATENCI\u00d3N PERSONALIZADA  -  MEJOR ASESORAMIENTO", "url": "http://www.fiatturinmdp.com.ar", "section": "repuestos-para-el-auto", "phone": "", "location": " Mar del Plata - Buenos Aires ", "address": " Av J P Ramos 342   "}, {"name": "Bs Electroauto SRL", "tags": "VENTA DE REPUESTOS PARA AUTOS", "url": "", "section": "repuestos-para-el-auto", "phone": "(0261) 491 - 0984", "location": " Rodeo de la Cruz - Mendoza ", "address": " Band D L Andes 9430   "}, {"name": "Dominguez Repuestos SRL", "tags": "SUSPENSI\u00d3N  -  TREN DELANTERO  -  FRENOS  -  ALINEACI\u00d3N  -  REPUESTOS EN GENERAL Y ELECTRICIDAD", "url": "", "section": "repuestos-para-el-auto", "phone": "(0364) 447 - 1140", "location": " Juan Jos\u00e9 Castelli - Chaco ", "address": " Belgrano 537  "}, {"name": "La Esquina del Motor", "tags": "REPUESTOS", "url": "", "section": "repuestos-para-el-auto", "phone": "(0249) 444 - 2818", "location": " Tandil - Buenos Aires ", "address": " . Av Espa\u00f1a y Gral Paz   "}, {"name": "Fiat Prisma", "tags": "REPUESTOS Y ACCESORIOS FIAT", "url": "http://www.fiatprisma.com", "section": "repuestos-para-el-auto", "phone": "(0351) 455 - 8373", "location": " C\u00f3rdoba - Cordoba ", "address": " Av A Sabattini 4359  "}, {"name": "Autopartes Llopart", "tags": "VENTA DE REPUESTOS CHEVROLET Y VOLKSWAGEN", "url": "", "section": "repuestos-para-el-auto", "phone": "", "location": " Munro - Buenos Aires ", "address": " Av V S\u00e1rsfield 6139  "}, {"name": "Vega Repuestos & Cia", "tags": "VISITE NUESTRA WEB", "url": "http://www.repuestosvegaycia.com", "section": "repuestos-para-el-auto", "phone": "(02262) 42 - 5277", "location": " Necochea - Buenos Aires ", "address": " Av 59 2236  "}, {"name": "Condor Diesel", "tags": "REPUESTOS MERCEDES - BENZ", "url": "", "section": "repuestos-para-el-auto", "phone": "(0264) 425 - 0301", "location": " Santa Luc\u00eda - San Juan ", "address": " H Yrigoyen Este 1768   "}, {"name": "Repuestos Jose", "tags": "REPUESTOS PARA EL AUTOMOTOR  -  TODAS LAS MARCAS", "url": "", "section": "repuestos-para-el-auto", "phone": "(02657) 48 - 0666", "location": " Justo Daract - San Luis ", "address": " C\u00f3rdoba 945  "}, {"name": "Centro Fiat - Repuestos y Accesorios", "tags": "REPUESTOS Y ACCESORIOS PARA FIAT", "url": "", "section": "repuestos-para-el-auto", "phone": "(03751) 42 - 2131", "location": " Eldorado - Misiones ", "address": " Av San Mart\u00edn Este 223  "}, {"name": "Escapes el Gato Guzman", "tags": "ESCOBILLAS - ADITIVOS - AUTOPARTES - CHAPONES - FILTROS - PASTILLAS DE FRENO", "url": "", "section": "repuestos-para-el-auto", "phone": "(0294) 443 - 4442", "location": " San Carlos de Bariloche - Rio Negro ", "address": " 9 De Julio 1120  "}, {"name": "Autoteca - Repuestos y Accesorios", "tags": "REPUESTOS EN GENERAL  -  ACCESORIOS DEPORTIVOS  -  TODAS LAS MARCAS", "url": "", "section": "repuestos-para-el-auto", "phone": "", "location": " Rosario - Santa Fe ", "address": " Super\u00ed 1670  "}, {"name": "Ingeniero Civil - Erasmo Herrera", "tags": "REPUESTOS DEL AUTOMOTOR EN GENERAL", "url": "", "section": "repuestos-para-el-auto", "phone": "(03827) 42 - 0382", "location": " Aimogasta - La Rioja ", "address": " L De La Fuente 360  "}, {"name": "Rayco SRL", "tags": "SERVICE OFICIAL FORD - REPUESTOS ORIGINALES FORD - VENTA DE 0 KM - PLAN OVALO", "url": "http://www.raycosrl.com.ar", "section": "repuestos-para-el-auto", "phone": "", "location": " San Jos\u00e9 de la Esquina - Santa Fe ", "address": " 9 De Julio 851  "}, {"name": "Repuestos los Cachitos", "tags": "REPUESTOS PARA AUTOMOTORES DE TODAS LAS MARCAS", "url": "", "section": "repuestos-para-el-auto", "phone": "(02920) 46 - 2639", "location": " Carmen de Patagones - Buenos Aires ", "address": " Sarmiento 179  "}, {"name": "Salper Repuestos", "tags": "TODO PARA EL AUTOMOTOR", "url": "http://www.salper-repuestos.com", "section": "repuestos-para-el-auto", "phone": "(03492) 44 - 1043", "location": " Rafaela - Santa Fe ", "address": " Av E Salva 1301  "}, {"name": "La Casa del Fiat", "tags": "REPUESTOS PARA EL AUTOMOTOR - ACCESORIOS FIAT", "url": "", "section": "repuestos-para-el-auto", "phone": "(0385) 424 - 0074", "location": " Santiago del Estero - Santiago del Estero ", "address": " Av Rivadavia Oeste 903  "}, {"name": "Servi Fiat", "tags": "REPUESTOS FIAT ORIGINALES  -  IMPORTADOS Y NACIONALES", "url": "", "section": "repuestos-para-el-auto", "phone": "", "location": " San Salvador de Jujuy - Jujuy ", "address": " J M Gorriti 715  "}, {"name": "San Kar", "tags": "FRENOS  -  EMBRAGUES  -  TREN DELANTERO  -  REPUESTOS NACIONALES E IMPORTADOS", "url": "", "section": "repuestos-para-el-auto", "phone": "(02227) 42 - 4055", "location": " Lobos - Buenos Aires ", "address": " 25 De Mayo 491  "}, {"name": "Dotti Sandro - Electricidad", "tags": "AUTOMOTOR  -  BATER\u00cdAS  -  REPUESTOS", "url": "", "section": "repuestos-para-el-auto", "phone": "(03329) 42 - 6592", "location": " San Pedro - Buenos Aires ", "address": " H Pueyrred\u00f3n 160  "}, {"name": "Repuestos del Valle", "tags": "L\u00cdNEA COMPLETA DE REPUESTOS DEL AUTOMOTOR", "url": "", "section": "repuestos-para-el-auto", "phone": "(0342) 460 - 8627", "location": " Santa Fe - Santa Fe ", "address": " Av A Del Valle 7055  "}, {"name": "Repuestos del Valle", "tags": "L\u00cdNEA COMPLETA DE REPUESTOS DEL AUTOMOTOR", "url": "", "section": "repuestos-para-el-auto", "phone": "(0342) 460 - 8627", "location": " Santa Fe - Santa Fe ", "address": " Av A Del Valle 7055  "}, {"name": "Repuestos Juniors", "tags": "REPUESTOS MULTIMARCAS  -  L\u00cdNEA COMPLETA  -  ORIGINALES Y ALTERNATIVOS", "url": "", "section": "repuestos-para-el-auto", "phone": "(011) 4605 - 9888", "location": " Villa Riachuelo - Ciudad de Buenos Aires ", "address": " Av F De La Cruz 6351  "}, {"name": "Encendido Sur Electricidad - Baterias", "tags": "REPUESTOS NACIONALES E IMPORTADOS", "url": "http://www.encendidosurelectricidad.com", "section": "repuestos-para-el-auto", "phone": "(011) 4214 - 0749", "location": " Adrogu\u00e9 - Buenos Aires ", "address": " Av T Espora 1399  "}, {"name": "Electro Car", "tags": "", "url": "", "section": "repuestos-para-el-auto", "phone": "(0388) 422 - 9371", "location": " San Salvador de Jujuy - Jujuy ", "address": " J M Gorriti 404  "}, {"name": "Repuestos Henry", "tags": "", "url": "", "section": "repuestos-para-el-auto", "phone": "(03491) 47 - 3709", "location": " Tostado - Santa Fe ", "address": " Calle Rconquista 2de abril   "}, {"name": "Electricidad el Tucu", "tags": "", "url": "", "section": "repuestos-para-el-auto", "phone": "(03543) 44 - 8534", "location": " C\u00f3rdoba - Cordoba ", "address": " Av D Alvarez 9315  "}, {"name": "King Gabriel", "tags": "", "url": "", "section": "repuestos-para-el-auto", "phone": "(011) 4227 - 4327", "location": " Villa Dom\u00ednico - Buenos Aires ", "address": " Tres Arroyos 5465  "}, {"name": "Rey  del Encendido", "tags": "", "url": "", "section": "repuestos-para-el-auto", "phone": "(011) 4200 - 0383", "location": " Quilmes - Buenos Aires ", "address": " J A Craviotto 3679  "}, {"name": "Centro Repuestos", "tags": "", "url": "", "section": "repuestos-para-el-auto", "phone": "(011) 4208 - 8314", "location": " Pi\u00f1eyro - Buenos Aires ", "address": " Cabildo 601 \u00a0PB "}, {"name": "Eduardo Borello", "tags": "", "url": "", "section": "repuestos-para-el-auto", "phone": "(011) 4228 - 2311", "location": " Pi\u00f1eyro - Buenos Aires ", "address": " Cabildo 51 \u00a0PB "}, {"name": "Gustavo Alberto Leis", "tags": "", "url": "", "section": "repuestos-para-el-auto", "phone": "(011) 4295 - 1153", "location": " Uni\u00f3n Ferroviaria - Buenos Aires ", "address": " Av Patricios 539  "}, {"name": "Nexo", "tags": "", "url": "", "section": "repuestos-para-el-auto", "phone": "(03462) 42 - 5502", "location": " Venado Tuerto - Santa Fe ", "address": " Bv 12 De Octubre 398  "}, {"name": "Grupo Rc Repuestos", "tags": "", "url": "", "section": "repuestos-para-el-auto", "phone": "(011) 4238 - 9745", "location": " Burzaco - Buenos Aires ", "address": " Wilson 22 \u00a01 "}, {"name": "Repuestos Alem", "tags": "", "url": "", "section": "repuestos-para-el-auto", "phone": "(0263) 442 - 5993", "location": " San Mart\u00edn - Mendoza ", "address": " Av L N Alem 307  "}, {"name": "Mundo Reina", "tags": "", "url": "", "section": "repuestos-para-el-auto", "phone": "(011) 4227 - 8682", "location": " Wilde - Buenos Aires ", "address": " F Onzari 1175  "}, {"name": "Repuestos Yazzar", "tags": "", "url": "", "section": "repuestos-para-el-auto", "phone": "(011) 4943 - 1236", "location": " San Crist\u00f3bal - Ciudad de Buenos Aires ", "address": " Av Jujuy 1500 \u00a0PB "}, {"name": "Repuestos Ram", "tags": "", "url": "http://www.repuestosram.com.ar", "section": "repuestos-para-el-auto", "phone": "(0220) 486 - 2485", "location": " Merlo - Buenos Aires ", "address": " Av Pte Per\u00f3n 24798  "}, {"name": "Juntas Illinois Saicf", "tags": "", "url": "http://www.juntasillinois.com", "section": "repuestos-para-el-auto", "phone": "(0341) 453 - 6755", "location": " Rosario - Santa Fe ", "address": " Av Circ 25 De 2150   "}, {"name": "Todo For", "tags": "", "url": "", "section": "repuestos-para-el-auto", "phone": "(03865) 47 - 1819", "location": " Juan Bautista Alberdi - Tucuman ", "address": " L Quinteros 185  "}, {"name": "Ital Rouen SA", "tags": "", "url": "http://italrouen.com.ar", "section": "repuestos-para-el-auto", "phone": "(03489) 44 - 6519", "location": " Campana - Buenos Aires ", "address": " Rivadavia 944  "}, {"name": "Spv Repuestos", "tags": "", "url": "", "section": "repuestos-para-el-auto", "phone": "(011) 15 - 5388 - 1001", "location": " Mart\u00ednez - Buenos Aires ", "address": " H  Yrigoyen 1005  "}, {"name": "Ca\u00f1os de Escapes Jorge", "tags": "", "url": "", "section": "repuestos-para-el-auto", "phone": "(0341) 453 - 6747", "location": " Rosario - Santa Fe ", "address": " Av Sorrento 769  "}, {"name": "Caraffa Motos", "tags": "", "url": "", "section": "repuestos-para-el-auto", "phone": "(0351) 480 - 7683", "location": " C\u00f3rdoba - Cordoba ", "address": " Av E Caraffa 2378  "}, {"name": "Repuestos Auto Part'S", "tags": "", "url": "http://www.autopartsrg.com.ar", "section": "repuestos-para-el-auto", "phone": "(02966) 42 - 7507", "location": " R\u00edo Gallegos - Santa Cruz ", "address": " Corrientes 162  "}, {"name": "Casa de Repuestos Esq", "tags": "", "url": "", "section": "repuestos-para-el-auto", "phone": "(02202) 42 - 4597", "location": " Gonz\u00e1lez Cat\u00e1n - Buenos Aires ", "address": " Senguel 6647  "}, {"name": "Moyano Repuestos", "tags": "", "url": "", "section": "repuestos-para-el-auto", "phone": "(02302) 42 - 3522", "location": " General Pico - La Pampa ", "address": " 16 985  "}, {"name": "Rnc", "tags": "", "url": "http://www.rnctemperley.com.ar", "section": "repuestos-para-el-auto", "phone": "(011) 4244 - 3097", "location": " Temperley - Buenos Aires ", "address": " Av H Yrigoyen 10189  "}, {"name": "Ghf SA", "tags": "", "url": "", "section": "repuestos-para-el-auto", "phone": "(0263) 442 - 1051", "location": " San Mart\u00edn - Mendoza ", "address": " Av L N Alem 401  "}, {"name": "Repuestos Avenida", "tags": "", "url": "", "section": "repuestos-para-el-auto", "phone": "(011) 4200 - 8462", "location": " San Francisco Solano - Buenos Aires ", "address": " Calle 844 776   "}, {"name": "Rodacar SA", "tags": "", "url": "", "section": "repuestos-para-el-auto", "phone": "(02396) 47 - 0332", "location": " Pehuaj\u00f3 - Buenos Aires ", "address": " G Del Solar 400  "}, {"name": "Accesorios del Automotor", "tags": "", "url": "", "section": "repuestos-para-el-auto", "phone": "(02255) 46 - 2406", "location": " Villa Gesell - Buenos Aires ", "address": " Bv Mar\u00edtimo S/N E Paseo 117 Y 118   "}, {"name": "Ledesma", "tags": "", "url": "", "section": "repuestos-para-el-auto", "phone": "(011) 4281 - 0675", "location": " Monte Grande - Buenos Aires ", "address": " P Dreyer 501 \u00a0PB "}, {"name": "Ip Tools SRL", "tags": "", "url": "", "section": "repuestos-para-el-auto", "phone": "(011) 4952 - 0880", "location": " Once (Balvanera) - Ciudad de Buenos Aires ", "address": " Pasteur 168 \u00a0PB "}, {"name": "Leuwers Osvaldo", "tags": "", "url": "", "section": "repuestos-para-el-auto", "phone": "(011) 4228 - 7139", "location": " Pi\u00f1eyro - Buenos Aires ", "address": " Av H Yrigoyen 1787 \u00a0PB "}, {"name": "Taller Juan Carlos", "tags": "", "url": "", "section": "repuestos-para-el-auto", "phone": "(03562) 47 - 8314", "location": " Suardi - Santa Fe ", "address": " Cavallo 259  "}, {"name": "Sucesores de Jose a Thie", "tags": "", "url": "", "section": "repuestos-para-el-auto", "phone": "(03402) 42 - 6119", "location": " Arroyo Seco - Santa Fe ", "address": " Gral S Mart\u00edn 790  "}, {"name": "Auto Termas Repuestos", "tags": "", "url": "", "section": "repuestos-para-el-auto", "phone": "(03858) 42 - 3082", "location": " R\u00edo Hondo - Santiago del Estero ", "address": " HIPOLITO YRIGOYEN 321  "}, {"name": "Repuestos Auto-Shop", "tags": "", "url": "", "section": "repuestos-para-el-auto", "phone": "(0220) 480 - 3254", "location": " Parque San Mart\u00edn - Buenos Aires ", "address": " Av Echeverry 118  "}, {"name": "Auto Repuestos Tettamanti", "tags": "", "url": "", "section": "repuestos-para-el-auto", "phone": "(011) 4583 - 1948", "location": " Villa Crespo - Ciudad de Buenos Aires ", "address": " Dr N Repetto 2083  "}, {"name": "Euro Car Repuestos y Accesorios del Auto", "tags": "", "url": "", "section": "repuestos-para-el-auto", "phone": "(03546) 46 - 4505", "location": " Villa General Belgrano - Cordoba ", "address": " Av San Mart\u00edn 230  "}, {"name": "Repuestos Centenario - Todo para el Motor del Auto", "tags": "", "url": "http://www.repuestoscentenario.com.ar", "section": "repuestos-para-el-auto", "phone": "(02266) 43 - 2746", "location": " Balcarce - Buenos Aires ", "address": " Av Centenario 1042  "}, {"name": "Auto Pro - Repuestos y Accesorios Fiat y Renault", "tags": "", "url": "", "section": "repuestos-para-el-auto", "phone": "(0351) 456 - 5755", "location": " C\u00f3rdoba - Cordoba ", "address": " Av A Sabattini 3665  "}]}